osm_id,code,fclass,name,objectid2,province,district,tehsil,lat,lng
61146664,2601,bank,عسکری بینک,197,FEDERAL CAPITAL TERRITORY,ISLAMABAD,ISLAMABAD,33.6981,73.0113
61146673,2601,bank,الائیڈ بینک لمیٹڈ,197,FEDERAL CAPITAL TERRITORY,ISLAMABAD,ISLAMABAD,33.6977,73.0106
61146691,2601,bank,United Bank Ltd,197,FEDERAL CAPITAL TERRITORY,ISLAMABAD,ISLAMABAD,33.696,73.0119
88433623,2601,bank,عسکری بینک,0,SINDH,KARACHI,SADDAR TOWN,24.85,67.0096
88958224,2723,monument,Quaid-e-Azam Muhammad Ali Jinnah,0,SINDH,KARACHI,JAMSHED TOWN,24.8732,67.0373
99021896,2016,market_place,Liberty Market,354,PUNJAB,LAHORE,LAHORE CANTT,31.5113,74.345
110694316,2724,memorial,Minar-e-Pakistan,355,PUNJAB,LAHORE,LAHORE CITY,31.5925,74.3095
110694316,2721,attraction,Minar-e-Pakistan,355,PUNJAB,LAHORE,LAHORE CITY,31.5925,74.3095
199588019,2950,tower,,0,SINDH,KARACHI,KIAMARI TOWN,24.8542,66.9089
203443343,2742,viewpoint,乔戈里峰 کے ٹو,215,GILGIT BALTISTAN,SKARDU,SHIGAR,35.8817,76.5133
211325636,2301,restaurant,Daman-e-Koh,197,FEDERAL CAPITAL TERRITORY,ISLAMABAD,ISLAMABAD,33.7384,73.057
211325636,2742,viewpoint,Daman-e-Koh,197,FEDERAL CAPITAL TERRITORY,ISLAMABAD,ISLAMABAD,33.7384,73.057
212538228,2601,bank,اسٹینڈرڈ چارٹرڈ,197,FEDERAL CAPITAL TERRITORY,ISLAMABAD,ISLAMABAD,33.6838,72.9868
234511823,2601,bank,اسٹینڈرڈ چارٹرڈ,197,FEDERAL CAPITAL TERRITORY,ISLAMABAD,ISLAMABAD,33.6967,73.0113
237459304,2601,bank,City Bank,197,FEDERAL CAPITAL TERRITORY,ISLAMABAD,ISLAMABAD,33.6849,72.9888
237492791,2601,bank,Saudi Pak Commercial Bank,197,FEDERAL CAPITAL TERRITORY,ISLAMABAD,ISLAMABAD,33.6838,72.9869
237495339,2601,bank,عسکری بینک,197,FEDERAL CAPITAL TERRITORY,ISLAMABAD,ISLAMABAD,33.6844,72.986
240218764,2110,hospital,Ali Medical Centre,197,FEDERAL CAPITAL TERRITORY,ISLAMABAD,ISLAMABAD,33.7105,73.0418
241905500,2511,convenience,Tariq Market,197,FEDERAL CAPITAL TERRITORY,ISLAMABAD,ISLAMABAD,33.6905,72.9988
242106656,2501,supermarket,شہزاد ٹاؤن Shehzad Town Chak Shehzad islamabad,197,FEDERAL CAPITAL TERRITORY,ISLAMABAD,ISLAMABAD,33.6725,73.1398
247682428,2082,school,Islamabad College for Girls,197,FEDERAL CAPITAL TERRITORY,ISLAMABAD,ISLAMABAD,33.7303,73.0729
247889520,2904,fountain,,197,FEDERAL CAPITAL TERRITORY,ISLAMABAD,ISLAMABAD,33.7299,73.0942
247892561,2724,memorial,,197,FEDERAL CAPITAL TERRITORY,ISLAMABAD,ISLAMABAD,33.745,73.133
247921889,2724,memorial,Chand Sitara,197,FEDERAL CAPITAL TERRITORY,ISLAMABAD,ISLAMABAD,33.6981,73.0862
247946640,2110,hospital,نوری ہسپتال,197,FEDERAL CAPITAL TERRITORY,ISLAMABAD,ISLAMABAD,33.6999,73.0545
248021965,2253,swimming_pool,,197,FEDERAL CAPITAL TERRITORY,ISLAMABAD,ISLAMABAD,33.6989,73.0956
248864319,2082,school,FG Boys Model School,197,FEDERAL CAPITAL TERRITORY,ISLAMABAD,ISLAMABAD,33.6848,73.0203
248933542,2203,cinema,Cinepax,401,PUNJAB,RAWALPINDI,RAWALPINDI,33.5857,73.0733
253018400,2110,hospital,Poly Clinic Hospital,197,FEDERAL CAPITAL TERRITORY,ISLAMABAD,ISLAMABAD,33.7211,73.0828
253161850,2733,archaeological,Mohenjo-daro VS area,465,SINDH,LARKANA,DOKRI,27.3217,68.1366
253180176,2301,restaurant,Khanji - Highway,0,SINDH,KARACHI,GADAP TOWN,24.985,67.2144
254665431,2001,police,تھانہ کوہسار,197,FEDERAL CAPITAL TERRITORY,ISLAMABAD,ISLAMABAD,33.7221,73.0603
254668137,2005,post_office,Pakistan Post Mall,197,FEDERAL CAPITAL TERRITORY,ISLAMABAD,ISLAMABAD,33.7188,73.0531
254765715,2952,water_tower,,401,PUNJAB,RAWALPINDI,RAWALPINDI,33.6123,73.0638
254765936,2082,school,Sir Syed Public School,401,PUNJAB,RAWALPINDI,RAWALPINDI,33.6051,73.0771
254765978,2084,college,Vaqar un Nisa Girls College,401,PUNJAB,RAWALPINDI,RAWALPINDI,33.6038,73.0759
254766152,2084,college,Rawalpindi Medical College,401,PUNJAB,RAWALPINDI,RAWALPINDI,33.6027,73.0684
254766326,2084,college,Gordon College,401,PUNJAB,RAWALPINDI,RAWALPINDI,33.6084,73.0617
254766721,2007,library,Municipal Library,401,PUNJAB,RAWALPINDI,RAWALPINDI,33.6055,73.0651
254890079,2007,library,Al Sadiq Library Education Center,197,FEDERAL CAPITAL TERRITORY,ISLAMABAD,ISLAMABAD,33.6886,73.0233
254975704,2303,cafe,The Hot Spot,197,FEDERAL CAPITAL TERRITORY,ISLAMABAD,ISLAMABAD,33.7259,73.0577
254975815,2303,cafe,The Gelato Affair,197,FEDERAL CAPITAL TERRITORY,ISLAMABAD,ISLAMABAD,33.726,73.0578
254975882,2303,cafe,گلوریا جینز,197,FEDERAL CAPITAL TERRITORY,ISLAMABAD,ISLAMABAD,33.7261,73.0579
254976251,2301,restaurant,Golden Dragon,197,FEDERAL CAPITAL TERRITORY,ISLAMABAD,ISLAMABAD,33.7263,73.0578
254979635,2303,cafe,The Hot Spot Cafe,197,FEDERAL CAPITAL TERRITORY,ISLAMABAD,ISLAMABAD,33.7364,73.0814
254982061,2203,cinema,NAFDEC Cinema,197,FEDERAL CAPITAL TERRITORY,ISLAMABAD,ISLAMABAD,33.7204,73.0744
254985095,2601,bank,Muslim Commercial Bank,197,FEDERAL CAPITAL TERRITORY,ISLAMABAD,ISLAMABAD,33.7251,73.0859
255764767,2110,hospital,CMH,401,PUNJAB,RAWALPINDI,RAWALPINDI,33.5816,73.0493
255910264,2082,school,,197,FEDERAL CAPITAL TERRITORY,ISLAMABAD,ISLAMABAD,33.6964,73.0542
255913888,2001,police,Rescue 15,197,FEDERAL CAPITAL TERRITORY,ISLAMABAD,ISLAMABAD,33.6995,73.0597
255934563,2203,cinema,,197,FEDERAL CAPITAL TERRITORY,ISLAMABAD,ISLAMABAD,33.7167,73.0856
255935080,2601,bank,ایچ بی ایل پاکستان,197,FEDERAL CAPITAL TERRITORY,ISLAMABAD,ISLAMABAD,33.7184,73.0854
255937348,2601,bank,Muslim Commercial Bank,197,FEDERAL CAPITAL TERRITORY,ISLAMABAD,ISLAMABAD,33.7163,73.0856
255954369,2110,hospital,Healthways,401,PUNJAB,RAWALPINDI,RAWALPINDI,33.5953,73.0575
256071139,2009,courthouse,District Courts,401,PUNJAB,RAWALPINDI,RAWALPINDI,33.5845,73.0661
256371663,2082,school,Beaconhouse Margalla Campus,197,FEDERAL CAPITAL TERRITORY,ISLAMABAD,ISLAMABAD,33.6823,73.0666
256825235,2082,school,Froebel's International School,197,FEDERAL CAPITAL TERRITORY,ISLAMABAD,ISLAMABAD,33.7226,73.0531
258067338,2511,convenience,Salman Market,197,FEDERAL CAPITAL TERRITORY,ISLAMABAD,ISLAMABAD,33.6823,72.9803
258986553,2084,college,Islamabad Model College for Boys I-8/3,197,FEDERAL CAPITAL TERRITORY,ISLAMABAD,ISLAMABAD,33.6715,73.0729
267194717,2204,park,,354,PUNJAB,LAHORE,LAHORE CANTT,31.47,74.3762
270893763,2511,convenience,,354,PUNJAB,LAHORE,LAHORE CANTT,31.4716,74.3732
270894506,2204,park,Sec Z Prk Ph 3,354,PUNJAB,LAHORE,LAHORE CANTT,31.4786,74.3815
270900302,2004,post_box,,354,PUNJAB,LAHORE,LAHORE CANTT,31.479,74.3915
270900974,2204,park,Sec E,354,PUNJAB,LAHORE,LAHORE CANTT,31.4793,74.3904
270903705,2204,park,Sec T & S Ph 2,354,PUNJAB,LAHORE,LAHORE CANTT,31.4747,74.4018
271065685,2082,school,Pak Railway Academy,354,PUNJAB,LAHORE,LAHORE CANTT,31.4875,74.3593
271071188,2204,park,,354,PUNJAB,LAHORE,LAHORE CANTT,31.4844,74.3829
271072589,2204,park,,354,PUNJAB,LAHORE,LAHORE CANTT,31.4852,74.3864
271075820,2001,police,DHA Police Station,354,PUNJAB,LAHORE,LAHORE CANTT,31.4741,74.3941
271076822,2121,dentist,,354,PUNJAB,LAHORE,LAHORE CANTT,31.4745,74.3941
271096995,2082,school,DPS Girls,354,PUNJAB,LAHORE,LAHORE CANTT,31.4739,74.4007
271105745,2110,hospital,DHA Medical Center Phase III,354,PUNJAB,LAHORE,LAHORE CANTT,31.4767,74.3715
271107138,2082,school,DPS Sec Z Ph 3,354,PUNJAB,LAHORE,LAHORE CANTT,31.4712,74.3836
271108275,2007,library,DHA Library,354,PUNJAB,LAHORE,LAHORE CANTT,31.47,74.3853
271110942,2082,school,,354,PUNJAB,LAHORE,LAHORE CANTT,31.4672,74.3708
271136395,2204,park,Sec C Ph 1,354,PUNJAB,LAHORE,LAHORE CANTT,31.4804,74.3851
271137380,2204,park,Sec C Ph 1,354,PUNJAB,LAHORE,LAHORE CANTT,31.4792,74.3873
271138954,2082,school,The Lhr ALMA,354,PUNJAB,LAHORE,LAHORE CANTT,31.4815,74.3866
271140455,2082,school,Lhr Grammer,354,PUNJAB,LAHORE,LAHORE CANTT,31.4809,74.3909
271146376,2204,park,Sec J Ph 1,354,PUNJAB,LAHORE,LAHORE CANTT,31.4783,74.3899
271166561,2082,school,Boys College,354,PUNJAB,LAHORE,LAHORE CANTT,31.4911,74.3848
271284373,2111,clinic,,354,PUNJAB,LAHORE,LAHORE CANTT,31.4856,74.3947
271319950,2204,park,,354,PUNJAB,LAHORE,LAHORE CANTT,31.471,74.395
271696527,2082,school,Girls Collage,354,PUNJAB,LAHORE,LAHORE CANTT,31.4629,74.3901
271738937,2204,park,Park Sec AA Ph 4,354,PUNJAB,LAHORE,LAHORE CANTT,31.4587,74.3678
271785889,2082,school,OPF Boys College,197,FEDERAL CAPITAL TERRITORY,ISLAMABAD,ISLAMABAD,33.6828,73.0705
271786131,2082,school,Islamabad Convent,197,FEDERAL CAPITAL TERRITORY,ISLAMABAD,ISLAMABAD,33.6817,73.0712
271790194,2001,police,Margalla Police Station,197,FEDERAL CAPITAL TERRITORY,ISLAMABAD,ISLAMABAD,33.7093,73.0404
271971145,2742,viewpoint,Gasherbrum I 加舒尔布鲁木第一峰,215,GILGIT BALTISTAN,SKARDU,SHIGAR,35.7247,76.6976
272274933,2204,park,,354,PUNJAB,LAHORE,LAHORE CANTT,31.4624,74.3751
272275806,2082,school,,354,PUNJAB,LAHORE,LAHORE CANTT,31.4631,74.3748
272276860,2204,park,Park CC Ph 4,354,PUNJAB,LAHORE,LAHORE CANTT,31.4619,74.3817
272277616,2204,park,Park Sec JJ Ph 4,354,PUNJAB,LAHORE,LAHORE CANTT,31.4548,74.3899
272282633,2204,park,Sec GG Park Ph 4,354,PUNJAB,LAHORE,LAHORE CANTT,31.4551,74.3868
272328924,2204,park,Park Sec FF Ph 4,354,PUNJAB,LAHORE,LAHORE CANTT,31.4604,74.3907
272338673,2005,post_office,,354,PUNJAB,LAHORE,LAHORE CANTT,31.5054,74.3823
272338687,2082,school,,354,PUNJAB,LAHORE,LAHORE CANTT,31.5041,74.382
272340167,2205,playground,,354,PUNJAB,LAHORE,LAHORE CANTT,31.5156,74.3796
272344294,2204,park,,354,PUNJAB,LAHORE,LAHORE CANTT,31.5214,74.3811
272344518,2303,cafe,Services Club,354,PUNJAB,LAHORE,LAHORE CANTT,31.5185,74.3777
272380798,2721,attraction,,354,PUNJAB,LAHORE,LAHORE CANTT,31.5419,74.3506
272381173,2303,cafe,,354,PUNJAB,LAHORE,LAHORE CANTT,31.5379,74.3537
272381690,2084,college,Aitchison College,354,PUNJAB,LAHORE,LAHORE CANTT,31.5502,74.3456
272388931,2082,school,,354,PUNJAB,LAHORE,LAHORE CANTT,31.5693,74.3741
275772610,2401,hotel,Laraib Inn,197,FEDERAL CAPITAL TERRITORY,ISLAMABAD,ISLAMABAD,33.6822,73.0363
277500673,2722,museum,Pakistan Museum of Natural History,197,FEDERAL CAPITAL TERRITORY,ISLAMABAD,ISLAMABAD,33.6865,73.0761
277504376,2402,motel,ایڈونچر ان,197,FEDERAL CAPITAL TERRITORY,ISLAMABAD,ISLAMABAD,33.6898,73.1111
278618017,2721,attraction,Lipa Hut,400,PUNJAB,RAWALPINDI,MURREE,33.9192,73.4371
278618050,2952,water_tower,,401,PUNJAB,RAWALPINDI,RAWALPINDI,33.5965,73.045
285993886,2502,bakery,Oven Fresh Bakery,0,SINDH,KARACHI,N.NAZIMABAD TOWN,24.9383,67.0418
296092445,2082,school,Govt High School No.1 Haripur,239,KHYBER PAKHTUNKHWA,HARIPUR,HARIPUR,33.9941,72.9336
296159440,2082,school,Darul Aluum Islamia Rehmania,239,KHYBER PAKHTUNKHWA,HARIPUR,HARIPUR,33.9989,72.9313
296159916,2005,post_office,G.P.O,239,KHYBER PAKHTUNKHWA,HARIPUR,HARIPUR,33.9956,72.9334
296160067,2082,school,Govt. Girl's Pilot School,239,KHYBER PAKHTUNKHWA,HARIPUR,HARIPUR,33.9952,72.9354
296344805,2082,school,Govt. Girl's College,239,KHYBER PAKHTUNKHWA,HARIPUR,HARIPUR,34.0008,72.9313
296345225,2110,hospital,D.H.Q. Hospital,239,KHYBER PAKHTUNKHWA,HARIPUR,HARIPUR,33.9994,72.9152
296350543,2084,college,Post Graduate College,239,KHYBER PAKHTUNKHWA,HARIPUR,HARIPUR,33.9871,72.902
296352940,2082,school,Fauji Foundation School,239,KHYBER PAKHTUNKHWA,HARIPUR,HARIPUR,33.9996,72.9129
296353603,2082,school,Gate of Knowledge,239,KHYBER PAKHTUNKHWA,HARIPUR,HARIPUR,33.9969,72.9309
296360951,2401,hotel,Qureshi Hotel,239,KHYBER PAKHTUNKHWA,HARIPUR,HARIPUR,33.9941,72.9331
296362514,2082,school,Govt.High School No.2,239,KHYBER PAKHTUNKHWA,HARIPUR,HARIPUR,33.9984,72.9405
296365795,2082,school,Sir Syed College,239,KHYBER PAKHTUNKHWA,HARIPUR,HARIPUR,34.001,72.9301
296403549,2401,hotel,Aafaq Hotel,239,KHYBER PAKHTUNKHWA,HARIPUR,HARIPUR,33.9956,72.9432
296404186,2601,bank,نیشنل بینک آف پاکستان,239,KHYBER PAKHTUNKHWA,HARIPUR,HARIPUR,33.9953,72.9447
296413046,2082,school,Gov. Girls School,239,KHYBER PAKHTUNKHWA,HARIPUR,HARIPUR,33.9994,72.9315
296413104,2082,school,Elementary College,239,KHYBER PAKHTUNKHWA,HARIPUR,HARIPUR,33.9943,72.9301
296413617,2082,school,"FEF College for Women, Haripur",239,KHYBER PAKHTUNKHWA,HARIPUR,HARIPUR,33.9933,72.9308
296875552,2007,library,Muncipal Library Haripur,239,KHYBER PAKHTUNKHWA,HARIPUR,HARIPUR,33.9944,72.9338
297159227,2110,hospital,Alrasheed Hospital Haripur,239,KHYBER PAKHTUNKHWA,HARIPUR,HARIPUR,33.9962,72.9296
297160102,2723,monument,,239,KHYBER PAKHTUNKHWA,HARIPUR,HARIPUR,33.9956,72.9425
297213052,2110,hospital,Alghazi Hospital,239,KHYBER PAKHTUNKHWA,HARIPUR,HARIPUR,33.9968,72.9321
297213176,2082,school,Yateem Khana,239,KHYBER PAKHTUNKHWA,HARIPUR,HARIPUR,33.9934,72.9324
297233686,2082,school,Govt. High School Darwesh,239,KHYBER PAKHTUNKHWA,HARIPUR,HARIPUR,33.9903,72.9101
297235224,2082,school,International Public School,239,KHYBER PAKHTUNKHWA,HARIPUR,HARIPUR,33.9875,72.911
297235254,2082,school,Hazara Public School,239,KHYBER PAKHTUNKHWA,HARIPUR,HARIPUR,33.9854,72.9166
297469184,2082,school,Telecom Girl's School Haripur,239,KHYBER PAKHTUNKHWA,HARIPUR,HARIPUR,33.9679,72.9235
297470231,2110,hospital,TIP Hospital,239,KHYBER PAKHTUNKHWA,HARIPUR,HARIPUR,33.969,72.9267
297470327,2501,supermarket,,239,KHYBER PAKHTUNKHWA,HARIPUR,HARIPUR,33.9697,72.9252
297471025,2204,park,TIP Children Park,239,KHYBER PAKHTUNKHWA,HARIPUR,HARIPUR,33.9691,72.9209
297471981,2303,cafe,Officer's Club (Marriage Hall),239,KHYBER PAKHTUNKHWA,HARIPUR,HARIPUR,33.9711,72.9212
297472052,2082,school,Telecom Boys's Public School,239,KHYBER PAKHTUNKHWA,HARIPUR,HARIPUR,33.9757,72.9291
297476467,2082,school,Govt. Commerce College,239,KHYBER PAKHTUNKHWA,HARIPUR,HARIPUR,34.0026,72.9005
297476902,2082,school,Gov. Girl's High School Dheendah,239,KHYBER PAKHTUNKHWA,HARIPUR,HARIPUR,33.998,72.8866
297480806,2009,courthouse,New Session Court,239,KHYBER PAKHTUNKHWA,HARIPUR,HARIPUR,33.9945,72.9353
297482850,2001,police,Police Station Haripur,239,KHYBER PAKHTUNKHWA,HARIPUR,HARIPUR,33.9991,72.9358
297486607,2082,school,Mohallah Koha,239,KHYBER PAKHTUNKHWA,HARIPUR,HARIPUR,34.0001,72.9327
297647107,2084,college,WAPDA Training College,197,FEDERAL CAPITAL TERRITORY,ISLAMABAD,ISLAMABAD,33.6802,73.0645
297647180,2084,college,Polytechnical Institute for Women,197,FEDERAL CAPITAL TERRITORY,ISLAMABAD,ISLAMABAD,33.6761,73.0556
297647258,2081,university,علامہ اقبال اوپن یونیورسٹی,197,FEDERAL CAPITAL TERRITORY,ISLAMABAD,ISLAMABAD,33.6842,73.0556
297647608,2005,post_office,Pakistan Post Headquarters,197,FEDERAL CAPITAL TERRITORY,ISLAMABAD,ISLAMABAD,33.693,73.0607
297647905,2002,fire_station,Islamabad Fire Department,197,FEDERAL CAPITAL TERRITORY,ISLAMABAD,ISLAMABAD,33.6996,73.0731
297648462,2110,hospital,Islamabad International َDental Hospital and College,197,FEDERAL CAPITAL TERRITORY,ISLAMABAD,ISLAMABAD,33.7054,73.0794
297683371,2082,school,GHS for Boys,239,KHYBER PAKHTUNKHWA,HARIPUR,HARIPUR,33.9328,72.8577
298958179,2401,hotel,Shangrila Resort,216,GILGIT BALTISTAN,SKARDU,SKARDU,35.4276,75.4557
299014484,2401,hotel,PTDC Motel Baesham,268,KHYBER PAKHTUNKHWA,SHANGLA,BISHAM,34.8997,72.8616
299014485,2401,hotel,Besham Rana Lodge,268,KHYBER PAKHTUNKHWA,SHANGLA,BISHAM,34.9069,72.8628
299073131,2404,guesthouse,Phander River View Hotel,203,GILGIT BALTISTAN,GHIZER,GUPIS,36.162,72.8899
299725962,2732,ruins,Mandar,239,KHYBER PAKHTUNKHWA,HARIPUR,HARIPUR,33.9992,72.9344
299726226,2723,monument,Purani Committee,239,KHYBER PAKHTUNKHWA,HARIPUR,HARIPUR,33.9991,72.9336
300856816,2504,mall,Main Market Gulberg,354,PUNJAB,LAHORE,LAHORE CANTT,31.5242,74.3461
301886052,2741,picnic_site,Chair Lift Centre,218,KHYBER PAKHTUNKHWA,ABBOTTABAD,HAVELIAN,33.9082,73.2851
302217631,2401,hotel,PTDC Hotel,285,KHYBER PAKHTUNKHWA,UPPER DIR,DIR,35.232,71.8618
303062728,2016,market_place,Barkat Market,354,PUNJAB,LAHORE,LAHORE CANTT,31.5,74.3211
303179593,2742,viewpoint,Khan Pur Dam,239,KHYBER PAKHTUNKHWA,HARIPUR,HARIPUR,33.8121,72.9216
303276466,2082,school,Beconhouse,354,PUNJAB,LAHORE,LAHORE CANTT,31.4793,74.3603
303945094,2082,school,Shofait Intl,355,PUNJAB,LAHORE,LAHORE CITY,31.4744,74.2792
303950676,2204,park,,355,PUNJAB,LAHORE,LAHORE CITY,31.4721,74.28
304209460,2204,park,,354,PUNJAB,LAHORE,LAHORE CANTT,31.4525,74.3158
304504129,2082,school,COMSAT University Lahore,355,PUNJAB,LAHORE,LAHORE CITY,31.4005,74.1984
304566343,2084,college,Allama Iqbal Medical College,354,PUNJAB,LAHORE,LAHORE CANTT,31.4878,74.2977
304949502,2081,university,VC Ground,354,PUNJAB,LAHORE,LAHORE CANTT,31.4997,74.3019
305600989,2084,college,DHA Boy's,354,PUNJAB,LAHORE,LAHORE CANTT,31.4659,74.3955
306544013,2301,restaurant,"Isloo Grill, Pir Sohawa",239,KHYBER PAKHTUNKHWA,HARIPUR,HARIPUR,33.7843,73.1104
307639472,2721,attraction,Shuuba Chowk / شوبہ چوک,81,KHYBER PAKHTUNKHWA,Peshawar,Peshawar I,34.0088,71.5636
309504972,2601,bank,Bank Alflah,239,KHYBER PAKHTUNKHWA,HARIPUR,HARIPUR,33.9959,72.9424
309505786,2110,hospital,Mother Care Maternity,239,KHYBER PAKHTUNKHWA,HARIPUR,HARIPUR,33.996,72.9419
309598272,2110,hospital,Alfaisal Hospital,239,KHYBER PAKHTUNKHWA,HARIPUR,HARIPUR,33.9949,72.927
309598881,2501,supermarket,Gajal Plaza,239,KHYBER PAKHTUNKHWA,HARIPUR,HARIPUR,34.0015,72.931
309675959,2501,supermarket,Jaferi Market,239,KHYBER PAKHTUNKHWA,HARIPUR,HARIPUR,33.9969,72.9326
310388840,2082,school,Govt. Primary School,239,KHYBER PAKHTUNKHWA,HARIPUR,HARIPUR,33.9064,72.962
310388963,2082,school,Govt. High School,239,KHYBER PAKHTUNKHWA,HARIPUR,HARIPUR,33.907,72.9654
312719028,2110,hospital,PAF Hospital,197,FEDERAL CAPITAL TERRITORY,ISLAMABAD,ISLAMABAD,33.7156,73.017
312951207,2601,bank,ایچ بی ایل پاکستان,401,PUNJAB,RAWALPINDI,RAWALPINDI,33.5939,73.0511
316435089,2732,ruins,تخت بھائی بدھ خانقاہ,263,KHYBER PAKHTUNKHWA,MARDAN,TAKHT BHAI,34.2862,71.9469
316435089,2721,attraction,تخت بھائی بدھ خانقاہ,263,KHYBER PAKHTUNKHWA,MARDAN,TAKHT BHAI,34.2862,71.9469
317621870,2084,college,Hashmat Ali Islamia Degree College,401,PUNJAB,RAWALPINDI,RAWALPINDI,33.6436,73.092
317751386,2303,cafe,,401,PUNJAB,RAWALPINDI,RAWALPINDI,33.6378,73.0935
319134501,2904,fountain,Fawara Chowk,351,PUNJAB,KHUSHAB,KHUSHAB,32.2869,72.2804
319134501,2721,attraction,Fawara Chowk,351,PUNJAB,KHUSHAB,KHUSHAB,32.2869,72.2804
319135343,2301,restaurant,Bari's Biryani House,351,PUNJAB,KHUSHAB,KHUSHAB,32.2872,72.2802
345552199,2501,supermarket,XS Mobile,401,PUNJAB,RAWALPINDI,RAWALPINDI,33.5939,73.0552
347412355,2952,water_tower,,354,PUNJAB,LAHORE,LAHORE CANTT,31.4185,74.2691
347412359,2952,water_tower,,354,PUNJAB,LAHORE,LAHORE CANTT,31.4116,74.2655
360170600,2084,college,Govt College University Faisalabad,320,PUNJAB,FAISALABAD,FAISALABAD CITY,31.4172,73.0701
360174654,2010,prison,District Jail Faisalabad,320,PUNJAB,FAISALABAD,FAISALABAD CITY,31.4302,73.0761
364132863,2504,mall,Goldcrest Mall and Apartments,354,PUNJAB,LAHORE,LAHORE CANTT,31.4666,74.3817
366080415,2721,attraction,Pindi Point,400,PUNJAB,RAWALPINDI,MURREE,33.8929,73.3794
366080436,2084,college,لارنس کالج,400,PUNJAB,RAWALPINDI,MURREE,33.8863,73.369
366080451,2721,attraction,Kashmir Point,400,PUNJAB,RAWALPINDI,MURREE,33.9174,73.411
414646660,2082,school,Message Grammar School,355,PUNJAB,LAHORE,LAHORE CITY,31.4111,74.1816
444356921,2110,hospital,Nishtar Medical College,369,PUNJAB,MULTAN,MULTAN CITY,30.2029,71.4441
444357811,2111,clinic,University Clinic,369,PUNJAB,MULTAN,MULTAN CITY,30.2691,71.5027
444597688,2110,hospital,"Aliabad, Hospital",208,GILGIT BALTISTAN,HUNZA NAGAR,ALIABAD,36.3095,74.6145
444597755,2001,police,,208,GILGIT BALTISTAN,HUNZA NAGAR,ALIABAD,36.3056,74.6117
444598353,2303,cafe,Cafe and student biryani restaurent,208,GILGIT BALTISTAN,HUNZA NAGAR,ALIABAD,36.3077,74.618
444598922,2101,pharmacy,Al-Amin pharmacy,208,GILGIT BALTISTAN,HUNZA NAGAR,ALIABAD,36.3071,74.618
444599234,2082,school,Aliabad Model Academy,210,GILGIT BALTISTAN,HUNZA NAGAR,NAGAR-I,36.3042,74.6206
457309968,2422,camp_site,Saitcho,202,GILGIT BALTISTAN,GHANCHE,MASHABRUM,35.5168,76.401
457310243,2422,camp_site,Masherbrum Base Camp,202,GILGIT BALTISTAN,GHANCHE,MASHABRUM,35.5609,76.2997
479737407,2110,hospital,Alvi Dental Hospital,0,SINDH,KARACHI,JAMSHED TOWN,24.8564,67.0544
480667929,2082,school,Links Primary School,0,SINDH,KARACHI,SADDAR TOWN,24.8088,67.0307
480667930,2082,school,Links Pre School,0,SINDH,KARACHI,SADDAR TOWN,24.8079,67.0289
480667931,2082,school,Links Secondary School- Clifton 4,0,SINDH,KARACHI,SADDAR TOWN,24.8049,67.0296
482878992,2302,fast_food,پیزا ہٹ,239,KHYBER PAKHTUNKHWA,HARIPUR,HARIPUR,33.9952,72.9275
526681253,2201,theatre,Faisal Auditorium,354,PUNJAB,LAHORE,LAHORE CANTT,31.5035,74.3085
526681498,2902,bench,4 Number Gate,354,PUNJAB,LAHORE,LAHORE CANTT,31.501,74.3087
526681507,2110,hospital,PU Health Center,354,PUNJAB,LAHORE,LAHORE CANTT,31.5025,74.3116
526681563,2303,cafe,Main Cafeteria,354,PUNJAB,LAHORE,LAHORE CANTT,31.5037,74.3078
526681744,2405,hostel,Sir Syed Hostel No.1,354,PUNJAB,LAHORE,LAHORE CANTT,31.4982,74.3093
526681857,2404,guesthouse,PU Guest House,354,PUNJAB,LAHORE,LAHORE CANTT,31.504,74.3
526681860,2081,university,Department of Geography,354,PUNJAB,LAHORE,LAHORE CANTT,31.502,74.3085
526686824,2007,library,Main Library,354,PUNJAB,LAHORE,LAHORE CANTT,31.4994,74.3059
526687874,2405,hostel,Rahmat Ali Hall No.14,354,PUNJAB,LAHORE,LAHORE CANTT,31.4943,74.3043
526689373,2543,doityourself,Shopping Center,354,PUNJAB,LAHORE,LAHORE CANTT,31.4978,74.3081
526690133,2301,restaurant,Main Cafeteria,354,PUNJAB,LAHORE,LAHORE CANTT,31.4971,74.3069
526691482,2030,recycling,,354,PUNJAB,LAHORE,LAHORE CANTT,31.4889,74.3087
526691835,2203,cinema,,354,PUNJAB,LAHORE,LAHORE CANTT,31.4893,74.3108
526691835,2731,castle,,354,PUNJAB,LAHORE,LAHORE CANTT,31.4893,74.3108
526696531,2084,college,Govt College Burewala,422,PUNJAB,VEHARI,BUREWALA,30.1627,72.6786
526698400,2501,supermarket,Grain Market Al-Muqeet Traders 37G,422,PUNJAB,VEHARI,BUREWALA,30.1558,72.6793
526702024,2405,hostel,Faculity Hostel for men,300,PUNJAB,BAHAWALPUR,BAHAWALPUR,29.3761,71.7587
526706371,2110,hospital,IUB Hospital,300,PUNJAB,BAHAWALPUR,BAHAWALPUR,29.3755,71.7542
526707546,2303,cafe,,300,PUNJAB,BAHAWALPUR,BAHAWALPUR,29.3774,71.7571
526708908,2722,museum,Auditorium,300,PUNJAB,BAHAWALPUR,BAHAWALPUR,29.3788,71.7568
533745299,2511,convenience,,354,PUNJAB,LAHORE,LAHORE CANTT,31.4729,74.3781
533745331,2511,convenience,,354,PUNJAB,LAHORE,LAHORE CANTT,31.4729,74.3768
533745343,2511,convenience,,354,PUNJAB,LAHORE,LAHORE CANTT,31.4723,74.3784
533745388,2511,convenience,,354,PUNJAB,LAHORE,LAHORE CANTT,31.4719,74.3769
533745430,2511,convenience,,354,PUNJAB,LAHORE,LAHORE CANTT,31.4721,74.3774
533746184,2302,fast_food,ڈنکن ڈونٹس,354,PUNJAB,LAHORE,LAHORE CANTT,31.4753,74.3782
533746262,2301,restaurant,Gourmet Grill,354,PUNJAB,LAHORE,LAHORE CANTT,31.4747,74.3786
533746378,2301,restaurant,Bundu Khan,354,PUNJAB,LAHORE,LAHORE CANTT,31.4736,74.3792
533746576,2302,fast_food,,354,PUNJAB,LAHORE,LAHORE CANTT,31.4744,74.3766
533746600,2302,fast_food,,354,PUNJAB,LAHORE,LAHORE CANTT,31.4734,74.3766
533746953,2082,school,,354,PUNJAB,LAHORE,LAHORE CANTT,31.4766,74.3763
533746958,2082,school,,354,PUNJAB,LAHORE,LAHORE CANTT,31.476,74.3749
533747360,2303,cafe,گلوریا جینز,354,PUNJAB,LAHORE,LAHORE CANTT,31.4742,74.3792
540757181,2082,school,Junior Cadet School,354,PUNJAB,LAHORE,LAHORE CANTT,31.4295,74.2951
563684371,2110,hospital,یونائیٹڈ کرسچن ہسپتال,354,PUNJAB,LAHORE,LAHORE CANTT,31.5087,74.3405
565159951,2742,viewpoint,Broad Peak 布洛阿特峰,215,GILGIT BALTISTAN,SKARDU,SHIGAR,35.8143,76.5661
565347462,2001,police,Wah Police Station,402,PUNJAB,RAWALPINDI,TAXILA,33.7705,72.756
571786778,2401,hotel,Gilgit,207,GILGIT BALTISTAN,GILGIT,GILGIT,35.8993,74.3692
596199609,2001,police,Gizri Police Station,0,SINDH,KARACHI,CLIFTON CANTONMENT,24.8276,67.0594
596204273,2302,fast_food,مکڈونلڈز,0,SINDH,KARACHI,CLIFTON CANTONMENT,24.7986,67.0345
596209830,2501,supermarket,Park Towers Supermarket,0,SINDH,KARACHI,SADDAR TOWN,24.8144,67.027
596211094,2501,supermarket,Agha's,0,SINDH,KARACHI,SADDAR TOWN,24.8283,67.0355
603101022,2301,restaurant,Dera Inn,369,PUNJAB,MULTAN,MULTAN CITY,30.2707,71.4941
617962741,2110,hospital,Hafiz Aslam Dental Clinic,322,PUNJAB,FAISALABAD,JARANWALA,31.3364,73.4201
617962788,2511,convenience,Grain Market,322,PUNJAB,FAISALABAD,JARANWALA,31.3355,73.421
618587673,2082,school,Govt. MC High School,422,PUNJAB,VEHARI,BUREWALA,30.1624,72.6847
618587836,2301,restaurant,Deewan-e-Khas,422,PUNJAB,VEHARI,BUREWALA,30.1476,72.6468
628587047,2511,convenience,Jumbo Super Store,0,SINDH,KARACHI,GULSHAN E IQBAL TOWN,24.8747,67.0887
643125691,2204,park,Askari Park,354,PUNJAB,LAHORE,LAHORE CANTT,31.4654,74.3803
652425201,2082,school,International Islamic Grammer School,197,FEDERAL CAPITAL TERRITORY,ISLAMABAD,ISLAMABAD,33.6783,72.9802
653112668,2303,cafe,,401,PUNJAB,RAWALPINDI,RAWALPINDI,33.575,73.1093
658983454,2543,doityourself,Harware Store,197,FEDERAL CAPITAL TERRITORY,ISLAMABAD,ISLAMABAD,33.7296,73.0754
659727643,2303,cafe,Table Talk,197,FEDERAL CAPITAL TERRITORY,ISLAMABAD,ISLAMABAD,33.7354,73.0781
659730873,2303,cafe,Howdy,197,FEDERAL CAPITAL TERRITORY,ISLAMABAD,ISLAMABAD,33.7262,73.0579
659733380,2205,playground,Punjab Cricket Ground,197,FEDERAL CAPITAL TERRITORY,ISLAMABAD,ISLAMABAD,33.6898,73.0194
659736441,2302,fast_food,Food 24 Hours,197,FEDERAL CAPITAL TERRITORY,ISLAMABAD,ISLAMABAD,33.6835,72.9871
659736441,2501,supermarket,Food 24 Hours,197,FEDERAL CAPITAL TERRITORY,ISLAMABAD,ISLAMABAD,33.6835,72.9871
660156180,2082,school,,197,FEDERAL CAPITAL TERRITORY,ISLAMABAD,ISLAMABAD,33.7287,73.0655
660156672,2082,school,,197,FEDERAL CAPITAL TERRITORY,ISLAMABAD,ISLAMABAD,33.7299,73.0698
660956958,2101,pharmacy,Shaheen Pharmacy,197,FEDERAL CAPITAL TERRITORY,ISLAMABAD,ISLAMABAD,33.7297,73.0755
660960200,2301,restaurant,Islamabad Vintage Quisine,197,FEDERAL CAPITAL TERRITORY,ISLAMABAD,ISLAMABAD,33.7295,73.0749
660960870,2301,restaurant,Kitchen Cusine Grill,197,FEDERAL CAPITAL TERRITORY,ISLAMABAD,ISLAMABAD,33.722,73.0617
660960871,2301,restaurant,Zefra Restaurant,197,FEDERAL CAPITAL TERRITORY,ISLAMABAD,ISLAMABAD,33.7217,73.0622
662431114,2082,school,,197,FEDERAL CAPITAL TERRITORY,ISLAMABAD,ISLAMABAD,33.5741,73.1995
662431116,2511,convenience,,401,PUNJAB,RAWALPINDI,RAWALPINDI,33.5803,73.144
662431117,2004,post_box,,401,PUNJAB,RAWALPINDI,RAWALPINDI,33.5799,73.1443
663128024,2101,pharmacy,Watsons,197,FEDERAL CAPITAL TERRITORY,ISLAMABAD,ISLAMABAD,33.7296,73.0753
663520522,2302,fast_food,کینٹکی فرائیڈ چکن,197,FEDERAL CAPITAL TERRITORY,ISLAMABAD,ISLAMABAD,33.7293,73.0747
663898356,2601,bank,"State Bank Of Pakistan, Sukkur",505,SINDH,SUKKUR,ROHRI,27.6972,68.8704
674141730,2110,hospital,Social Security Hospital,355,PUNJAB,LAHORE,LAHORE CITY,31.4968,74.2632
674141733,2006,telephone,PCO,355,PUNJAB,LAHORE,LAHORE CITY,31.4961,74.2633
727801219,2252,pitch,,0,SINDH,KARACHI,JAMSHED TOWN,24.8769,67.0268
732019120,2111,clinic,Tania Clinic,0,SINDH,KARACHI,GULSHAN E IQBAL TOWN,24.8948,67.057
734881654,2402,motel,پی ٹی ڈی سی موٹل,28,BALOCHISTAN,CHAGAI,Taftan,28.9743,61.5571
734882750,2401,hotel,Bloomstar Hotel,130,BALOCHISTAN,QUETTA,QUETTA CITY,30.1894,67.0049
734889373,2401,hotel,,130,BALOCHISTAN,QUETTA,QUETTA CITY,30.1893,67.0037
740503747,2401,hotel,,146,BALOCHISTAN,ZHOB,ZHOB,31.3456,69.4455
740547370,2402,motel,PTDC Motel,105,BALOCHISTAN,LORALAI,Loralai,30.3953,68.5545
740568336,2001,police,تھانہ,148,BALOCHISTAN,ZIARAT,ZIARAT SUB DIVISION,30.3837,67.7231
740575424,2742,viewpoint,,148,BALOCHISTAN,ZIARAT,ZIARAT SUB DIVISION,30.3482,67.7401
742042809,2401,hotel,Eastern Pearl Motel,300,PUNJAB,BAHAWALPUR,BAHAWALPUR,29.406,71.6656
742046790,2401,hotel,Midway Hotel,231,KHYBER PAKHTUNKHWA,DERA ISMAIL KHAN,D.I.KHAN,31.8244,70.9278
742145824,2401,hotel,Rose Hotel,81,KHYBER PAKHTUNKHWA,Peshawar,Peshawar I,34.0086,71.564
742146088,2401,hotel,Hidayat Hotel,81,KHYBER PAKHTUNKHWA,Peshawar,Peshawar I,34.016,71.5735
746029578,2401,hotel,Tulip Hotel,332,PUNJAB,GUJRAT,SARAI ALAMGIR,32.9073,73.7308
746250537,2301,restaurant,PTDC Restaurant,257,KHYBER PAKHTUNKHWA,MALAKAND PROTECTED AREA,SWAT RANIZAI,34.6321,72.0053
746250570,2422,camp_site,Camping at the restaurant,257,KHYBER PAKHTUNKHWA,MALAKAND PROTECTED AREA,SWAT RANIZAI,34.6322,72.0052
746256633,2401,hotel,,199,GILGIT BALTISTAN,DIAMIR,CHILAS,35.4311,74.1019
746261177,2401,hotel,Satpara Lake View Hotel,216,GILGIT BALTISTAN,SKARDU,SKARDU,35.2386,75.6367
746264669,2402,motel,Concordia Motel,216,GILGIT BALTISTAN,SKARDU,SKARDU,35.295,75.6515
746264678,2401,hotel,PTDC Motel Istak,214,GILGIT BALTISTAN,SKARDU,RONDU,35.6321,75.0246
746329524,2401,hotel,PTDC Motel,209,GILGIT BALTISTAN,HUNZA NAGAR,GOJAL,36.6914,74.8197
746330607,2404,guesthouse,Passu Peak Inn,209,GILGIT BALTISTAN,HUNZA NAGAR,GOJAL,36.4828,74.8825
746970500,2404,guesthouse,Khaplu Inn,201,GILGIT BALTISTAN,GHANCHE,KHAPLU,35.1646,76.3433
747660059,2404,guesthouse,Kalak Sissojak Guest House,229,KHYBER PAKHTUNKHWA,CHITRAL,CHITRAL,35.6859,71.6603
747660061,2001,police,Foreigners Registration Office,229,KHYBER PAKHTUNKHWA,CHITRAL,CHITRAL,35.8537,71.7893
747664433,2401,hotel,Dir Continental Hotel,255,KHYBER PAKHTUNKHWA,LOWER DIR,TEMERGARA,34.8207,71.84
747675849,2401,hotel,,259,KHYBER PAKHTUNKHWA,MANSEHRA,MANSEHRA,34.3337,73.1958
747696344,2404,guesthouse,مدینہ گیسٹ ہاؤس,207,GILGIT BALTISTAN,GILGIT,GILGIT,35.9223,74.3139
762936150,2501,supermarket,H Karim Baksh,354,PUNJAB,LAHORE,LAHORE CANTT,31.5094,74.3423
769260701,2302,fast_food,Hot 'n' Spicy,0,SINDH,KARACHI,CLIFTON CANTONMENT,24.8096,67.0694
769260705,2303,cafe,Espresso Cafe,0,SINDH,KARACHI,CLIFTON CANTONMENT,24.8081,67.0615
800039814,2301,restaurant,Luna Caprese,197,FEDERAL CAPITAL TERRITORY,ISLAMABAD,ISLAMABAD,33.7304,73.0754
800040633,2601,bank,HSBC,197,FEDERAL CAPITAL TERRITORY,ISLAMABAD,ISLAMABAD,33.7289,73.0759
800042361,2101,pharmacy,GNC,197,FEDERAL CAPITAL TERRITORY,ISLAMABAD,ISLAMABAD,33.7316,73.0791
800043396,2521,gift_shop,,197,FEDERAL CAPITAL TERRITORY,ISLAMABAD,ISLAMABAD,33.7278,73.0732
800043474,2513,florist,,197,FEDERAL CAPITAL TERRITORY,ISLAMABAD,ISLAMABAD,33.7281,73.0731
821646237,2901,toilet,,197,FEDERAL CAPITAL TERRITORY,ISLAMABAD,ISLAMABAD,33.7279,73.0731
821664342,2303,cafe,Mocca,197,FEDERAL CAPITAL TERRITORY,ISLAMABAD,ISLAMABAD,33.7356,73.078
835253118,2005,post_office,Hostel Post Office,354,PUNJAB,LAHORE,LAHORE CANTT,31.497,74.3067
846545733,2110,hospital,Combined Military Hospital Family Section,231,KHYBER PAKHTUNKHWA,DERA ISMAIL KHAN,D.I.KHAN,31.8271,70.92
846545734,2110,hospital,Mehmood Eye Hospital,231,KHYBER PAKHTUNKHWA,DERA ISMAIL KHAN,D.I.KHAN,31.814,70.9193
846545735,2110,hospital,Mission Hospital,231,KHYBER PAKHTUNKHWA,DERA ISMAIL KHAN,D.I.KHAN,31.8228,70.8979
846545736,2110,hospital,Combined Military Hospital,231,KHYBER PAKHTUNKHWA,DERA ISMAIL KHAN,D.I.KHAN,31.8265,70.9212
846552676,2081,university,Gomal University - City Campus,231,KHYBER PAKHTUNKHWA,DERA ISMAIL KHAN,D.I.KHAN,31.8203,70.8977
846552680,2082,school,Boys High School #4,231,KHYBER PAKHTUNKHWA,DERA ISMAIL KHAN,D.I.KHAN,31.8283,70.8962
846552682,2084,college,Army Public School and College,231,KHYBER PAKHTUNKHWA,DERA ISMAIL KHAN,D.I.KHAN,31.8415,70.8956
846552692,2082,school,Boys High School,231,KHYBER PAKHTUNKHWA,DERA ISMAIL KHAN,D.I.KHAN,31.8481,70.9115
846552694,2084,college,Degree College for Boys #1,231,KHYBER PAKHTUNKHWA,DERA ISMAIL KHAN,D.I.KHAN,31.8172,70.9077
854341089,2110,hospital,CMH Peshawar - Combined Military Hospital,81,KHYBER PAKHTUNKHWA,Peshawar,Peshawar Cantonment,34.0034,71.5427
860974881,2201,theatre,Nusrat Fateh Ali Khan Auditorium,320,PUNJAB,FAISALABAD,FAISALABAD CITY,31.4315,73.0862
865212190,2252,pitch,,320,PUNJAB,FAISALABAD,FAISALABAD CITY,31.3869,73.0704
865310818,2203,cinema,Minerva Cinema,320,PUNJAB,FAISALABAD,FAISALABAD CITY,31.4137,73.0737
869009167,2950,tower,,447,SINDH,JAMSHORO,SEHWAN,26.3305,67.8659
869718156,2950,tower,,264,KHYBER PAKHTUNKHWA,NOWSHEHRA_,NOWSHERA,34.1099,71.914
870457477,2424,caravan_site,ZAIN UL ABIDEN HOME'S جی او آر کالونی حیدرآباد,440,SINDH,HYDERABAD,LATIFABAD,25.3783,68.3381
874296161,2601,bank,,369,PUNJAB,MULTAN,MULTAN CITY,30.2017,71.4545
879400570,2732,ruins,خیرپور جوسو جو دڑو,490,SINDH,SHAHDAD KOT,NASIRABAD,27.5152,68.0535
880522069,2120,doctors,Aga Khan Health Center,208,GILGIT BALTISTAN,HUNZA NAGAR,ALIABAD,36.3064,74.6125
880526486,2101,pharmacy,Al-Amin Medical,208,GILGIT BALTISTAN,HUNZA NAGAR,ALIABAD,36.307,74.6153
880527503,2401,hotel,,208,GILGIT BALTISTAN,HUNZA NAGAR,ALIABAD,36.3078,74.6153
880532051,2110,hospital,Aga Khan Health Center,208,GILGIT BALTISTAN,HUNZA NAGAR,ALIABAD,36.3064,74.6125
880535054,2082,school,Aliabad Boy College,208,GILGIT BALTISTAN,HUNZA NAGAR,ALIABAD,36.3118,74.6175
883898388,2737,fort,Sharkargarh,227,KHYBER PAKHTUNKHWA,CHARSADDA,SHABQADAR,34.2248,71.5688
885748362,2301,restaurant,"Savour Food (""Pulao Kabab"")",401,PUNJAB,RAWALPINDI,RAWALPINDI,33.6106,73.0624
895114229,2721,attraction,Shogran,258,KHYBER PAKHTUNKHWA,MANSEHRA,BALAKOT,34.6409,73.464
895554389,2110,hospital,,312,PUNJAB,CHAKWAL,TALA GANG,32.9387,72.4137
912942163,2962,water_well,Juma Tar,483,SINDH,SANGHAR,KHIPRO,26.1057,69.8265
912942164,2962,water_well,Hathoi Tar,483,SINDH,SANGHAR,KHIPRO,26.1199,69.7696
912942165,2962,water_well,Chania Tar,483,SINDH,SANGHAR,KHIPRO,26.0349,69.7006
912942166,2962,water_well,Virshar Tar,483,SINDH,SANGHAR,KHIPRO,26.0363,69.7987
912942167,2962,water_well,Verai Tar,483,SINDH,SANGHAR,KHIPRO,26.0755,69.6742
912942168,2962,water_well,Ladhar Tar,483,SINDH,SANGHAR,KHIPRO,26.0775,69.7996
912942169,2962,water_well,Tar Dagrahu,483,SINDH,SANGHAR,KHIPRO,26.0008,69.9015
912942170,2962,water_well,Nawon Tar,483,SINDH,SANGHAR,KHIPRO,26.1018,69.7477
912942171,2962,water_well,Samanbewari Khui,483,SINDH,SANGHAR,KHIPRO,26.0215,69.8588
912942172,2962,water_well,Qasim Tar,483,SINDH,SANGHAR,KHIPRO,26.0758,69.7104
914219800,2082,school,,354,PUNJAB,LAHORE,LAHORE CANTT,31.5129,74.3374
914229793,2001,police,locoshed police chowki,401,PUNJAB,RAWALPINDI,RAWALPINDI,33.6158,73.034
920248536,2511,convenience,Bakeman,197,FEDERAL CAPITAL TERRITORY,ISLAMABAD,ISLAMABAD,33.7128,73.0406
925144068,2302,fast_food,مکڈونلڈز,401,PUNJAB,RAWALPINDI,RAWALPINDI,33.5853,73.0719
925162114,2501,supermarket,METRO cash & carry,197,FEDERAL CAPITAL TERRITORY,ISLAMABAD,ISLAMABAD,33.64,73.0256
933074606,2302,fast_food,ڈنکن ڈونٹس,0,SINDH,KARACHI,GULSHAN E IQBAL TOWN,24.8831,67.0903
933074666,2302,fast_food,Chillis Fast Food,0,SINDH,KARACHI,GULSHAN E IQBAL TOWN,24.8746,67.0881
933074672,2302,fast_food,Kaybees Fast Food,0,SINDH,KARACHI,GULSHAN E IQBAL TOWN,24.8753,67.0878
933110115,2502,bakery,Ideal Bakers,0,SINDH,KARACHI,JAMSHED TOWN,24.8671,67.0754
933110119,2721,attraction,Fun City - Hill Park,0,SINDH,KARACHI,JAMSHED TOWN,24.8713,67.0711
934985256,2004,post_box,Awan Town Post Office,355,PUNJAB,LAHORE,LAHORE CITY,31.5043,74.2616
934985259,2501,supermarket,Awan Town Market,355,PUNJAB,LAHORE,LAHORE CITY,31.5044,74.2618
935843930,2205,playground,,355,PUNJAB,LAHORE,LAHORE CITY,31.5022,74.2604
935843937,2082,school,,355,PUNJAB,LAHORE,LAHORE CITY,31.5032,74.2598
945059016,2082,school,F.G School No. 8,402,PUNJAB,RAWALPINDI,TAXILA,33.784,72.721
946538114,2082,school,F.G High School No.6,402,PUNJAB,RAWALPINDI,TAXILA,33.7817,72.7252
947867450,2082,school,F.G Degree College For Men,402,PUNJAB,RAWALPINDI,TAXILA,33.7747,72.7496
954015975,2001,police,Police Station New Pind,503,SINDH,SUKKUR,NEW SUKKUR,27.7051,68.8574
954474450,2404,guesthouse,Horizon,197,FEDERAL CAPITAL TERRITORY,ISLAMABAD,ISLAMABAD,33.7252,73.0462
955183623,2110,hospital,HIRA hospital,505,SINDH,SUKKUR,ROHRI,27.6912,68.8554
955221058,2082,school,Masjid School,503,SINDH,SUKKUR,NEW SUKKUR,27.7049,68.8579
955236718,2301,restaurant,Kiran Bakers & Genral Store,505,SINDH,SUKKUR,ROHRI,27.6946,68.8712
955237137,2301,restaurant,New Alam Gouste,505,SINDH,SUKKUR,ROHRI,27.695,68.8706
965808597,2082,school,AliGarh School,369,PUNJAB,MULTAN,MULTAN CITY,30.2207,71.4737
973497666,2601,bank,دبئی اسلامی بینک,0,SINDH,KARACHI,JAMSHED TOWN,24.8797,67.0655
973497673,2601,bank,Meezan Bank Ltd,0,SINDH,KARACHI,JAMSHED TOWN,24.8799,67.0652
973762028,2721,attraction,Rangoonwala Hall,0,SINDH,KARACHI,GULSHAN E IQBAL TOWN,24.8854,67.0747
976498243,2601,bank,Meezan Bank Limited (Shahrah-e-Faisal 0111),0,SINDH,KARACHI,JAMSHED TOWN,24.864,67.0758
976879762,2084,college,Governament College Satellite Town,401,PUNJAB,RAWALPINDI,RAWALPINDI,33.6419,73.0651
977850325,2006,telephone,,197,FEDERAL CAPITAL TERRITORY,ISLAMABAD,ISLAMABAD,33.7187,73.0543
977852301,2401,hotel,Hill View Hotel,197,FEDERAL CAPITAL TERRITORY,ISLAMABAD,ISLAMABAD,33.7211,73.0565
977854870,2302,fast_food,,197,FEDERAL CAPITAL TERRITORY,ISLAMABAD,ISLAMABAD,33.72,73.0571
977855824,2301,restaurant,پیزا ہٹ,197,FEDERAL CAPITAL TERRITORY,ISLAMABAD,ISLAMABAD,33.7221,73.0588
1012197611,2082,school,The Educators,322,PUNJAB,FAISALABAD,JARANWALA,31.3218,73.3926
1029599217,2082,school,Punjab International Public School,313,PUNJAB,CHINIOT,BHAWANA,31.5641,72.6515
1042607910,2401,hotel,Hotel Avanti,401,PUNJAB,RAWALPINDI,RAWALPINDI,33.598,73.0523
1064545340,2304,pub,,354,PUNJAB,LAHORE,LAHORE CANTT,31.5093,74.3228
1064545340,2741,picnic_site,,354,PUNJAB,LAHORE,LAHORE CANTT,31.5093,74.3228
1068779625,2001,police,Gulberg Police Station,320,PUNJAB,FAISALABAD,FAISALABAD CITY,31.4243,73.0665
1081145390,2515,bookshop,Saeed Book Bank,197,FEDERAL CAPITAL TERRITORY,ISLAMABAD,ISLAMABAD,33.7224,73.0586
1081224046,2401,hotel,Hotel Mashabrum,216,GILGIT BALTISTAN,SKARDU,SKARDU,35.3025,75.6235
1081224051,2401,hotel,Khyber Lodge,245,KHYBER PAKHTUNKHWA,KOHISTAN,DASSU,35.3573,73.2031
1081513950,2082,school,APWA School,440,SINDH,HYDERABAD,LATIFABAD,25.3666,68.362
1081588354,2002,fire_station,Fire Brigade,440,SINDH,HYDERABAD,LATIFABAD,25.3731,68.3638
1082575935,2016,market_place,Anarkali Centre,440,SINDH,HYDERABAD,LATIFABAD,25.3734,68.3558
1082591719,2602,atm,ایم سی بی بینک,440,SINDH,HYDERABAD,LATIFABAD,25.3733,68.3556
1083340548,2101,pharmacy,BHITTAI HOSPITAL,440,SINDH,HYDERABAD,LATIFABAD,25.3669,68.3437
1088958650,2001,police,A-Section Police Station,440,SINDH,HYDERABAD,LATIFABAD,25.3627,68.3621
1088992109,2110,hospital,DOCTORS PLAZA,440,SINDH,HYDERABAD,LATIFABAD,25.3712,68.3568
1088992135,2101,pharmacy,MEDICAL STORTE,440,SINDH,HYDERABAD,LATIFABAD,25.3728,68.3555
1088992149,2301,restaurant,,440,SINDH,HYDERABAD,LATIFABAD,25.3692,68.3579
1088992167,2301,restaurant,,440,SINDH,HYDERABAD,LATIFABAD,25.3693,68.3581
1088992170,2301,restaurant,Balochistan Sajji,440,SINDH,HYDERABAD,LATIFABAD,25.3738,68.3556
1088992175,2301,restaurant,,440,SINDH,HYDERABAD,LATIFABAD,25.3694,68.3582
1088992185,2101,pharmacy,MEDICAL STORE,440,SINDH,HYDERABAD,LATIFABAD,25.3696,68.355
1088992211,2101,pharmacy,MEDICAL STORE,440,SINDH,HYDERABAD,LATIFABAD,25.3694,68.359
1088992216,2101,pharmacy,MEDICAL STORE,440,SINDH,HYDERABAD,LATIFABAD,25.3728,68.3555
1089008363,2001,police,RANGERS,440,SINDH,HYDERABAD,LATIFABAD,25.3632,68.3506
1089008369,2304,pub,,440,SINDH,HYDERABAD,LATIFABAD,25.3695,68.3591
1089008376,2001,police,Police Station B-Section,440,SINDH,HYDERABAD,LATIFABAD,25.3623,68.3493
1089008388,2251,sports_centre,Board Stadium,440,SINDH,HYDERABAD,LATIFABAD,25.3625,68.3491
1089342762,2502,bakery,Bakery,197,FEDERAL CAPITAL TERRITORY,ISLAMABAD,ISLAMABAD,33.7179,73.0854
1089415483,2516,butcher,Butcher Shop,197,FEDERAL CAPITAL TERRITORY,ISLAMABAD,ISLAMABAD,33.7356,73.0785
1089417190,2511,convenience,,197,FEDERAL CAPITAL TERRITORY,ISLAMABAD,ISLAMABAD,33.7357,73.0786
1089595055,2301,restaurant,Canadian Club,197,FEDERAL CAPITAL TERRITORY,ISLAMABAD,ISLAMABAD,33.721,73.1124
1089617438,2011,embassy,سویڈن کا سفارت خانہ,197,FEDERAL CAPITAL TERRITORY,ISLAMABAD,ISLAMABAD,33.7362,73.0762
1089625574,2741,picnic_site,Argintine Park,197,FEDERAL CAPITAL TERRITORY,ISLAMABAD,ISLAMABAD,33.7196,73.084
1092218130,2512,clothes,EGO,440,SINDH,HYDERABAD,LATIFABAD,25.3837,68.3498
1092236787,2301,restaurant,پیزا ہٹ,440,SINDH,HYDERABAD,LATIFABAD,25.3802,68.3372
1092236796,2303,cafe,,440,SINDH,HYDERABAD,LATIFABAD,25.3838,68.3468
1092236836,2301,restaurant,,440,SINDH,HYDERABAD,LATIFABAD,25.3838,68.347
1093392155,2110,hospital,Memon Hospital,439,SINDH,HYDERABAD,HYDERABAD,25.3955,68.3766
1096053565,2082,school,Comprehensive School,440,SINDH,HYDERABAD,LATIFABAD,25.3561,68.3539
1096119344,2564,car_wash,,197,FEDERAL CAPITAL TERRITORY,ISLAMABAD,ISLAMABAD,33.7174,73.0839
1096136959,2110,hospital,Red Crescent Institute of Cardiology,440,SINDH,HYDERABAD,LATIFABAD,25.3726,68.3479
1096846926,2006,telephone,,440,SINDH,HYDERABAD,LATIFABAD,25.3694,68.3564
1096846932,2005,post_office,,440,SINDH,HYDERABAD,LATIFABAD,25.3683,68.3572
1096869028,2511,convenience,,440,SINDH,HYDERABAD,LATIFABAD,25.3715,68.3566
1096869031,2511,convenience,,440,SINDH,HYDERABAD,LATIFABAD,25.3704,68.3576
1096869046,2512,clothes,,440,SINDH,HYDERABAD,LATIFABAD,25.3683,68.3593
1096869049,2511,convenience,,440,SINDH,HYDERABAD,LATIFABAD,25.3715,68.3567
1096869053,2515,bookshop,,440,SINDH,HYDERABAD,LATIFABAD,25.3713,68.3569
1096869057,2516,butcher,,440,SINDH,HYDERABAD,LATIFABAD,25.3703,68.3584
1096869060,2303,cafe,Tea Cafe,440,SINDH,HYDERABAD,LATIFABAD,25.3698,68.3582
1096869061,2511,convenience,,440,SINDH,HYDERABAD,LATIFABAD,25.3709,68.3573
1096869084,2516,butcher,,440,SINDH,HYDERABAD,LATIFABAD,25.3705,68.3586
1096869087,2511,convenience,,440,SINDH,HYDERABAD,LATIFABAD,25.371,68.3571
1096869105,2511,convenience,,440,SINDH,HYDERABAD,LATIFABAD,25.37,68.358
1096925191,2561,hairdresser,,440,SINDH,HYDERABAD,LATIFABAD,25.366,68.3629
1096925193,2502,bakery,Bilal Bakery,440,SINDH,HYDERABAD,LATIFABAD,25.3658,68.3643
1096925198,2516,butcher,,440,SINDH,HYDERABAD,LATIFABAD,25.3655,68.3661
1096925201,2516,butcher,,440,SINDH,HYDERABAD,LATIFABAD,25.366,68.3664
1096925203,2502,bakery,National,440,SINDH,HYDERABAD,LATIFABAD,25.3656,68.3644
1096925225,2511,convenience,,440,SINDH,HYDERABAD,LATIFABAD,25.3662,68.3631
1096925226,2101,pharmacy,medical medical,440,SINDH,HYDERABAD,LATIFABAD,25.3661,68.3628
1096925228,2101,pharmacy,Medical Store,440,SINDH,HYDERABAD,LATIFABAD,25.3663,68.3628
1096925230,2516,butcher,,440,SINDH,HYDERABAD,LATIFABAD,25.3658,68.3662
1096925234,2303,cafe,Mujahid Cafe,440,SINDH,HYDERABAD,LATIFABAD,25.366,68.363
1096935288,2511,convenience,,440,SINDH,HYDERABAD,LATIFABAD,25.3679,68.3594
1096935294,2511,convenience,,440,SINDH,HYDERABAD,LATIFABAD,25.367,68.3579
1096935302,2512,clothes,,440,SINDH,HYDERABAD,LATIFABAD,25.3674,68.3577
1096935307,2511,convenience,,440,SINDH,HYDERABAD,LATIFABAD,25.3681,68.366
1096935315,2502,bakery,,440,SINDH,HYDERABAD,LATIFABAD,25.3681,68.3662
1096935318,2302,fast_food,Shama Tikka,440,SINDH,HYDERABAD,LATIFABAD,25.3697,68.3571
1096935324,2302,fast_food,small hotel,440,SINDH,HYDERABAD,LATIFABAD,25.3697,68.3583
1096935326,2511,convenience,,440,SINDH,HYDERABAD,LATIFABAD,25.3673,68.3589
1096935330,2601,bank,National Bank Pakistan-NBP,440,SINDH,HYDERABAD,LATIFABAD,25.374,68.3554
1096935344,2511,convenience,,440,SINDH,HYDERABAD,LATIFABAD,25.3696,68.3591
1096935353,2303,cafe,Piala Cafe,440,SINDH,HYDERABAD,LATIFABAD,25.3665,68.3581
1096935355,2512,clothes,,440,SINDH,HYDERABAD,LATIFABAD,25.3678,68.3602
1096935358,2511,convenience,,440,SINDH,HYDERABAD,LATIFABAD,25.3692,68.3591
1096935360,2511,convenience,,440,SINDH,HYDERABAD,LATIFABAD,25.3688,68.3632
1096945982,2303,cafe,Cafe Piru,440,SINDH,HYDERABAD,LATIFABAD,25.357,68.3589
1096945983,2511,convenience,,440,SINDH,HYDERABAD,LATIFABAD,25.3564,68.36
1096945992,2303,cafe,Chai Hojaye,440,SINDH,HYDERABAD,LATIFABAD,25.368,68.3488
1096945995,2511,convenience,,440,SINDH,HYDERABAD,LATIFABAD,25.3565,68.3605
1096945997,2511,convenience,,440,SINDH,HYDERABAD,LATIFABAD,25.3566,68.3594
1096945999,2303,cafe,Shai Karak,440,SINDH,HYDERABAD,LATIFABAD,25.3665,68.349
1096946000,2511,convenience,,440,SINDH,HYDERABAD,LATIFABAD,25.3562,68.3614
1096946003,2302,fast_food,biryani house,440,SINDH,HYDERABAD,LATIFABAD,25.3583,68.3579
1096946004,2511,convenience,,440,SINDH,HYDERABAD,LATIFABAD,25.3577,68.3582
1096946009,2301,restaurant,small hotel,440,SINDH,HYDERABAD,LATIFABAD,25.3582,68.3581
1096946010,2601,bank,الائیڈ بینک لمیٹڈ,440,SINDH,HYDERABAD,LATIFABAD,25.3667,68.349
1096946012,2511,convenience,,440,SINDH,HYDERABAD,LATIFABAD,25.3571,68.3587
1096946013,2511,convenience,,440,SINDH,HYDERABAD,LATIFABAD,25.3575,68.3587
1096946018,2511,convenience,,440,SINDH,HYDERABAD,LATIFABAD,25.357,68.3592
1096971816,2001,police,Women Police Station,440,SINDH,HYDERABAD,LATIFABAD,25.3763,68.3439
1096998142,2511,convenience,,439,SINDH,HYDERABAD,HYDERABAD,25.3934,68.3706
1096998145,2511,convenience,,440,SINDH,HYDERABAD,LATIFABAD,25.3871,68.3735
1096998147,2512,clothes,,440,SINDH,HYDERABAD,LATIFABAD,25.3894,68.3717
1096998154,2511,convenience,,439,SINDH,HYDERABAD,HYDERABAD,25.3922,68.3717
1096998156,2511,convenience,,440,SINDH,HYDERABAD,LATIFABAD,25.3891,68.3698
1096998157,2511,convenience,,440,SINDH,HYDERABAD,LATIFABAD,25.3911,68.3718
1096998159,2511,convenience,,440,SINDH,HYDERABAD,LATIFABAD,25.3876,68.3725
1096998162,2512,clothes,,440,SINDH,HYDERABAD,LATIFABAD,25.3892,68.3703
1096998164,2512,clothes,,440,SINDH,HYDERABAD,LATIFABAD,25.3895,68.3712
1096998175,2511,convenience,,439,SINDH,HYDERABAD,HYDERABAD,25.3928,68.3712
1096998180,2512,clothes,,440,SINDH,HYDERABAD,LATIFABAD,25.3882,68.3699
1096998182,2511,convenience,,440,SINDH,HYDERABAD,LATIFABAD,25.3892,68.3722
1096998183,2512,clothes,,440,SINDH,HYDERABAD,LATIFABAD,25.3885,68.3697
1096998185,2511,convenience,,440,SINDH,HYDERABAD,LATIFABAD,25.3897,68.372
1096998187,2512,clothes,,440,SINDH,HYDERABAD,LATIFABAD,25.3869,68.3693
1096998195,2511,convenience,,440,SINDH,HYDERABAD,LATIFABAD,25.3884,68.3726
1096999515,2511,convenience,,439,SINDH,HYDERABAD,HYDERABAD,25.394,68.371
1096999520,2511,convenience,,439,SINDH,HYDERABAD,HYDERABAD,25.3943,68.3704
1096999543,2511,convenience,,439,SINDH,HYDERABAD,HYDERABAD,25.3956,68.3701
1097701939,2601,bank,ایم سی بی بینک,440,SINDH,HYDERABAD,LATIFABAD,25.3645,68.3601
1097701940,2601,bank,habib bank,440,SINDH,HYDERABAD,LATIFABAD,25.3711,68.3565
1097702736,2512,clothes,Uniform Centre,440,SINDH,HYDERABAD,LATIFABAD,25.3735,68.3555
1097702740,2512,clothes,uniform centre,440,SINDH,HYDERABAD,LATIFABAD,25.3691,68.3593
1097702743,2515,bookshop,,440,SINDH,HYDERABAD,LATIFABAD,25.3736,68.3555
1097703357,2601,bank,,440,SINDH,HYDERABAD,LATIFABAD,25.3696,68.3592
1097703637,2501,supermarket,Fruit Mandi,440,SINDH,HYDERABAD,LATIFABAD,25.3777,68.3727
1097703638,2501,supermarket,Sabzi Mandi,440,SINDH,HYDERABAD,LATIFABAD,25.3782,68.3724
1097706325,2001,police,Kotri Police Station,440,SINDH,HYDERABAD,LATIFABAD,25.3676,68.3132
1097706516,2205,playground,,440,SINDH,HYDERABAD,LATIFABAD,25.3686,68.3072
1097708913,2082,school,,440,SINDH,HYDERABAD,LATIFABAD,25.366,68.3141
1097710476,2001,police,Gawalmandi Police Station,354,PUNJAB,LAHORE,LAHORE CANTT,31.5722,74.32
1097711073,2082,school,,440,SINDH,HYDERABAD,LATIFABAD,25.3628,68.3171
1097712533,2082,school,,440,SINDH,HYDERABAD,LATIFABAD,25.363,68.3155
1099280810,2082,school,training centre,440,SINDH,HYDERABAD,LATIFABAD,25.3282,68.358
1099412411,2001,police,Emergency 15 - madadgar police,440,SINDH,HYDERABAD,LATIFABAD,25.3826,68.3485
1099415531,2301,restaurant,,440,SINDH,HYDERABAD,LATIFABAD,25.3832,68.3453
1099415536,2502,bakery,Black & Brown Bakers,440,SINDH,HYDERABAD,LATIFABAD,25.3838,68.3501
1099449484,2110,hospital,,440,SINDH,HYDERABAD,LATIFABAD,25.3741,68.3554
1101278044,2110,hospital,,440,SINDH,HYDERABAD,LATIFABAD,25.3923,68.3629
1101279762,2301,restaurant,Hotel Faran,440,SINDH,HYDERABAD,LATIFABAD,25.3911,68.3642
1101279764,2601,bank,فیصل بینک,440,SINDH,HYDERABAD,LATIFABAD,25.3923,68.3639
1101289129,2001,police,,440,SINDH,HYDERABAD,LATIFABAD,25.3857,68.3652
1101289141,2005,post_office,GPO Hyderabad,440,SINDH,HYDERABAD,LATIFABAD,25.3888,68.3649
1101743519,2082,school,,440,SINDH,HYDERABAD,LATIFABAD,25.3881,68.3654
1102236394,2601,bank,جے ایس بینک,440,SINDH,HYDERABAD,LATIFABAD,25.3666,68.3493
1102236416,2110,hospital,Red Crescent General Hospital Hilal E Ahmer,440,SINDH,HYDERABAD,LATIFABAD,25.3683,68.3524
1102870044,2205,playground,govt girls degree college,440,SINDH,HYDERABAD,LATIFABAD,25.3678,68.3622
1104452104,2601,bank,ایچ بی ایل پاکستان,445,SINDH,JAMSHORO,KOTRI,25.4343,68.2727
1104452105,2303,cafe,canteen,445,SINDH,JAMSHORO,KOTRI,25.4339,68.2726
1104452109,2301,restaurant,,445,SINDH,JAMSHORO,KOTRI,25.434,68.2725
1104452118,2101,pharmacy,,445,SINDH,JAMSHORO,KOTRI,25.4342,68.2725
1106378621,2302,fast_food,One potato two potato,197,FEDERAL CAPITAL TERRITORY,ISLAMABAD,ISLAMABAD,33.7199,73.0553
1106384012,2301,restaurant,cafe lazeez,197,FEDERAL CAPITAL TERRITORY,ISLAMABAD,ISLAMABAD,33.7188,73.0547
1107332782,2110,hospital,,440,SINDH,HYDERABAD,LATIFABAD,25.3343,68.3628
1107334235,2082,school,,440,SINDH,HYDERABAD,LATIFABAD,25.3171,68.3621
1116964219,2404,guesthouse,Executive Guest House,369,PUNJAB,MULTAN,MULTAN CITY,30.1974,71.4445
1118684521,2082,school,Tabani School of Accountancy,0,SINDH,KARACHI,JAMSHED TOWN,24.8633,67.0586
1119711731,2082,school,,439,SINDH,HYDERABAD,HYDERABAD,25.4157,68.3625
1119754100,2601,bank,HBL Bank,440,SINDH,HYDERABAD,LATIFABAD,25.3894,68.3686
1119754101,2110,hospital,Homeo Pathic Hospital,440,SINDH,HYDERABAD,LATIFABAD,25.3882,68.3759
1119767935,2723,monument,Navalrai Clock Tower,439,SINDH,HYDERABAD,HYDERABAD,25.3988,68.3693
1119767936,2203,cinema,Elite,439,SINDH,HYDERABAD,HYDERABAD,25.3986,68.3688
1133701026,2511,convenience,,440,SINDH,HYDERABAD,LATIFABAD,25.3673,68.3136
1133701031,2511,convenience,,440,SINDH,HYDERABAD,LATIFABAD,25.3669,68.314
1133703994,2511,convenience,,440,SINDH,HYDERABAD,LATIFABAD,25.3685,68.3122
1136127516,2723,monument,Shadman Palace Chowk,440,SINDH,HYDERABAD,LATIFABAD,25.3661,68.3545
1140767607,2101,pharmacy,Goodwill Pharmacy,197,FEDERAL CAPITAL TERRITORY,ISLAMABAD,ISLAMABAD,33.7226,73.0823
1145891578,2301,restaurant,Lamis Restaurant,390,PUNJAB,RAHIM YAR KHAN,RAHIM YAR KHAN,28.4219,70.3126
1145891633,2401,hotel,Lamis Hotel,390,PUNJAB,RAHIM YAR KHAN,RAHIM YAR KHAN,28.4219,70.3124
1146993017,2082,school,Lacas,355,PUNJAB,LAHORE,LAHORE CITY,31.4714,74.2814
1147219109,2401,hotel,Avari Beach Luxury Hotel,0,SINDH,KARACHI,KIAMARI TOWN,24.8439,66.9956
1223036721,2001,police,,226,KHYBER PAKHTUNKHWA,CHARSADDA,CHARSADDA,34.1129,71.872
1223044948,2001,police,,226,KHYBER PAKHTUNKHWA,CHARSADDA,CHARSADDA,34.126,71.8121
1223082738,2744,theme_park,Sher Khan Shaheed Stadium park,81,KHYBER PAKHTUNKHWA,Peshawar,Peshawar Cantonment,34.0149,71.5488
1223088280,2904,fountain,,81,KHYBER PAKHTUNKHWA,Peshawar,Peshawar Cantonment,34.0148,71.5515
1223111906,2401,hotel,Shawal Hotel,81,KHYBER PAKHTUNKHWA,Peshawar,Peshawar I,34.0149,71.5822
1223880845,2601,bank,The Bank of Khyber,81,KHYBER PAKHTUNKHWA,Peshawar,Peshawar I,34.0163,71.5853
1223932413,2501,supermarket,Jan's Shopping Plaza,81,KHYBER PAKHTUNKHWA,Peshawar,Peshawar Cantonment,34.0026,71.545
1223941862,2906,waste_basket,,81,KHYBER PAKHTUNKHWA,Peshawar,Peshawar III,33.992,71.4981
1223943705,2401,hotel,Blue Palace,81,KHYBER PAKHTUNKHWA,Peshawar,Peshawar III,33.9902,71.5022
1223944102,2101,pharmacy,Shaheen Pharmacy,81,KHYBER PAKHTUNKHWA,Peshawar,Peshawar III,33.9973,71.492
1223944307,2601,bank,MCB,81,KHYBER PAKHTUNKHWA,Peshawar,Peshawar III,33.9967,71.4922
1223945822,2404,guesthouse,Revoli Guest House,81,KHYBER PAKHTUNKHWA,Peshawar,Peshawar III,33.999,71.5001
1223953048,2952,water_tower,,81,KHYBER PAKHTUNKHWA,Peshawar,Peshawar III,33.9951,71.4973
1223958742,2404,guesthouse,Inter Con Guest House,81,KHYBER PAKHTUNKHWA,Peshawar,Peshawar III,33.9973,71.5013
1223966087,2001,police,Town Police Station,81,KHYBER PAKHTUNKHWA,Peshawar,Peshawar III,33.9978,71.4909
1224121359,2401,hotel,Grand Hotel,81,KHYBER PAKHTUNKHWA,Peshawar,Peshawar III,34.0072,71.5089
1224121362,2301,restaurant,KFC,81,KHYBER PAKHTUNKHWA,Peshawar,Peshawar III,34.0073,71.5255
1224127547,2511,convenience,Defence Shop,81,KHYBER PAKHTUNKHWA,Peshawar,Peshawar Cantonment,34.0108,71.5343
1224127555,2082,school,Fauji Foundation School,81,KHYBER PAKHTUNKHWA,Peshawar,Peshawar III,34.0125,71.5331
1224141047,2015,graveyard,,81,KHYBER PAKHTUNKHWA,Peshawar,Peshawar III,34.0158,71.5384
1224175063,2008,town_hall,Mayor's Office,81,KHYBER PAKHTUNKHWA,Peshawar,Peshawar I,34.0175,71.5716
1224286127,2110,hospital,Kidney Disease Centre,81,KHYBER PAKHTUNKHWA,Peshawar,Peshawar III,33.9918,71.4466
1224286131,2082,school,Post Graduate Medical Institute,81,KHYBER PAKHTUNKHWA,Peshawar,Peshawar III,33.9937,71.4447
1224286133,2405,hostel,Doctor's Hostel,81,KHYBER PAKHTUNKHWA,Peshawar,Peshawar III,33.9944,71.4521
1224286143,2082,school,College of Physicians and Surgeons,81,KHYBER PAKHTUNKHWA,Peshawar,Peshawar III,33.9934,71.4519
1224404628,2082,school,ILM,81,KHYBER PAKHTUNKHWA,Peshawar,Peshawar III,33.9887,71.4339
1224404630,2101,pharmacy,Pharma,81,KHYBER PAKHTUNKHWA,Peshawar,Peshawar III,33.9942,71.4509
1224404638,2082,school,University of Engineering and Technology Continueing Education Department,81,KHYBER PAKHTUNKHWA,Peshawar,Peshawar III,33.989,71.4349
1224404641,2082,school,Frontier Youth Academy,81,KHYBER PAKHTUNKHWA,Peshawar,Peshawar III,33.9893,71.4525
1224404650,2082,school,Frontier Children's Academy,81,KHYBER PAKHTUNKHWA,Peshawar,Peshawar III,33.9885,71.4505
1224404657,2110,hospital,Northwest General Hospital & Research Cnter,81,KHYBER PAKHTUNKHWA,Peshawar,Peshawar III,33.994,71.4359
1224404664,2001,police,FIA Headquarters Peshawar,81,KHYBER PAKHTUNKHWA,Peshawar,Peshawar III,33.993,71.4371
1224854852,2001,police,Hayatabad Police Station,81,KHYBER PAKHTUNKHWA,Peshawar,Peshawar III,33.9825,71.4432
1224866276,2251,sports_centre,Hyatabad Squash Club,81,KHYBER PAKHTUNKHWA,Peshawar,Peshawar III,33.9735,71.4429
1224866279,2001,police,SDPO Office,81,KHYBER PAKHTUNKHWA,Peshawar,Peshawar III,33.9729,71.4392
1224924174,2952,water_tower,,81,KHYBER PAKHTUNKHWA,Peshawar,Peshawar III,33.9956,71.488
1225241975,2601,bank,Bank al-Falah,81,KHYBER PAKHTUNKHWA,Peshawar,Peshawar Cantonment,34.0025,71.5456
1226368122,2303,cafe,Jan's Deli;Naan Sense,81,KHYBER PAKHTUNKHWA,Peshawar,Peshawar III,33.9969,71.4921
1226368129,2008,town_hall,Khyber Pakhtunkhwa Provincial Assembly,81,KHYBER PAKHTUNKHWA,Peshawar,Peshawar Cantonment,34.0141,71.5666
1226368131,2001,police,Central Police Office,81,KHYBER PAKHTUNKHWA,Peshawar,Peshawar Cantonment,34.0095,71.5561
1226368132,2404,guesthouse,پشاور پریس کلب,81,KHYBER PAKHTUNKHWA,Peshawar,Peshawar Cantonment,34.004,71.5511
1226368134,2722,museum,Peshawar Museum,81,KHYBER PAKHTUNKHWA,Peshawar,Peshawar Cantonment,34.0077,71.5583
1226368841,2301,restaurant,Chief Grill,81,KHYBER PAKHTUNKHWA,Peshawar,Peshawar III,33.9973,71.4924
1226378408,2008,town_hall,University Town Hall,81,KHYBER PAKHTUNKHWA,Peshawar,Peshawar III,33.9907,71.4881
1226378412,2110,hospital,ICRC Wound Trauma Hospital,81,KHYBER PAKHTUNKHWA,Peshawar,Peshawar III,33.9961,71.4896
1226378413,2952,water_tower,,81,KHYBER PAKHTUNKHWA,Peshawar,Peshawar III,33.9906,71.4882
1226378419,2301,restaurant,Kazbah,81,KHYBER PAKHTUNKHWA,Peshawar,Peshawar III,33.9917,71.4892
1226378422,2110,hospital,Kulsoom Maternity Home,81,KHYBER PAKHTUNKHWA,Peshawar,Peshawar III,33.9912,71.4918
1226378423,2082,school,Peshawar Business School,81,KHYBER PAKHTUNKHWA,Peshawar,Peshawar III,33.9904,71.4937
1226378424,2110,hospital,Shakat Khanum Clinic,81,KHYBER PAKHTUNKHWA,Peshawar,Peshawar III,33.9908,71.4913
1226378425,2082,school,Gandhara College of Pharmacy,81,KHYBER PAKHTUNKHWA,Peshawar,Peshawar III,33.992,71.4896
1226378426,2521,gift_shop,Deco Craft,81,KHYBER PAKHTUNKHWA,Peshawar,Peshawar III,33.9912,71.4892
1226386631,2516,butcher,,81,KHYBER PAKHTUNKHWA,Peshawar,Peshawar III,33.9987,71.4948
1226386637,2521,gift_shop,Avon Gift Shop,81,KHYBER PAKHTUNKHWA,Peshawar,Peshawar III,33.9991,71.4948
1226398110,2110,hospital,Khyber Teaching Hospital - Accident and Emergency,81,KHYBER PAKHTUNKHWA,Peshawar,Peshawar III,33.9959,71.4871
1226713181,2601,bank,Habib Band Limited,81,KHYBER PAKHTUNKHWA,Peshawar,Peshawar III,33.9956,71.4894
1226713187,2302,fast_food,Thames Burger,81,KHYBER PAKHTUNKHWA,Peshawar,Peshawar III,33.9987,71.4947
1230663579,2601,bank,ایم سی بی بینک,197,FEDERAL CAPITAL TERRITORY,ISLAMABAD,ISLAMABAD,33.7295,73.075
1230663583,2601,bank,یونائیٹڈ بینک لمیٹڈ,197,FEDERAL CAPITAL TERRITORY,ISLAMABAD,ISLAMABAD,33.7294,73.0748
1230663592,2511,convenience,Sham's,197,FEDERAL CAPITAL TERRITORY,ISLAMABAD,ISLAMABAD,33.7292,73.0744
1230663597,2904,fountain,,197,FEDERAL CAPITAL TERRITORY,ISLAMABAD,ISLAMABAD,33.7284,73.0728
1230689396,2902,bench,,197,FEDERAL CAPITAL TERRITORY,ISLAMABAD,ISLAMABAD,33.7294,73.0762
1230689399,2421,shelter,,197,FEDERAL CAPITAL TERRITORY,ISLAMABAD,ISLAMABAD,33.7295,73.076
1230689419,2902,bench,,197,FEDERAL CAPITAL TERRITORY,ISLAMABAD,ISLAMABAD,33.7296,73.076
1230689421,2902,bench,,197,FEDERAL CAPITAL TERRITORY,ISLAMABAD,ISLAMABAD,33.7295,73.0759
1230689424,2902,bench,,197,FEDERAL CAPITAL TERRITORY,ISLAMABAD,ISLAMABAD,33.7294,73.0761
1236657819,2301,restaurant,Resturant,56,BALOCHISTAN,KACHHI(BOLAN),Mach Sub,29.8596,67.3148
1240999869,2402,motel,Aspen Lodge,197,FEDERAL CAPITAL TERRITORY,ISLAMABAD,ISLAMABAD,33.7162,73.0928
1240999870,2511,convenience,Am-Pm grocery,197,FEDERAL CAPITAL TERRITORY,ISLAMABAD,ISLAMABAD,33.713,73.0627
1241014683,2402,motel,Asana,369,PUNJAB,MULTAN,MULTAN CITY,30.1853,71.4441
1241932083,2301,restaurant,Bundu Khan,354,PUNJAB,LAHORE,LAHORE CANTT,31.5655,74.3155
1241946931,2422,camp_site,Camping,26,BALOCHISTAN,CHAGAI,Dalbadin,28.7429,63.8467
1243928908,2301,restaurant,Nando's,197,FEDERAL CAPITAL TERRITORY,ISLAMABAD,ISLAMABAD,33.73,73.078
1243928909,2502,bakery,,197,FEDERAL CAPITAL TERRITORY,ISLAMABAD,ISLAMABAD,33.7294,73.0752
1243928910,2005,post_office,Pakistan Post Office PakPost,197,FEDERAL CAPITAL TERRITORY,ISLAMABAD,ISLAMABAD,33.7307,73.0783
1264431405,2016,market_place,,355,PUNJAB,LAHORE,LAHORE CITY,31.4409,74.2258
1264431406,2008,town_hall,,355,PUNJAB,LAHORE,LAHORE CITY,31.4414,74.2249
1268325837,2205,playground,باغ,355,PUNJAB,LAHORE,LAHORE CITY,31.4417,74.2138
1269536211,2082,school,,355,PUNJAB,LAHORE,LAHORE CITY,31.4481,74.216
1269536212,2251,sports_centre,Sports Club,355,PUNJAB,LAHORE,LAHORE CITY,31.4343,74.2139
1269536216,2016,market_place,H Block Market,355,PUNJAB,LAHORE,LAHORE CITY,31.4473,74.2153
1269536223,2016,market_place,E Block Market,355,PUNJAB,LAHORE,LAHORE CITY,31.4378,74.2129
1269561672,2016,market_place,,355,PUNJAB,LAHORE,LAHORE CITY,31.4278,74.2104
1269561688,2601,bank,,355,PUNJAB,LAHORE,LAHORE CITY,31.4281,74.2104
1269561696,2561,hairdresser,,355,PUNJAB,LAHORE,LAHORE CITY,31.4279,74.2104
1289001376,2110,hospital,زبیدہ بنی ونگ,315,PUNJAB,CHINIOT,LALIAN,31.7582,72.9163
1289008538,2005,post_office,,315,PUNJAB,CHINIOT,LALIAN,31.7574,72.9155
1289008571,2007,library,خلافت کتب خانہ,315,PUNJAB,CHINIOT,LALIAN,31.7592,72.9138
1305478189,2602,atm,,354,PUNJAB,LAHORE,LAHORE CANTT,31.472,74.3682
1305478192,2513,florist,Tariq Flowers,354,PUNJAB,LAHORE,LAHORE CANTT,31.4762,74.3685
1305478198,2304,pub,Iceland,354,PUNJAB,LAHORE,LAHORE CANTT,31.4739,74.3573
1305478201,2401,hotel,Marvel Hotel,354,PUNJAB,LAHORE,LAHORE CANTT,31.4739,74.3567
1305478204,2601,bank,ایم سی بی بینک,354,PUNJAB,LAHORE,LAHORE CANTT,31.474,74.3573
1320342272,2950,tower,,419,PUNJAB,TOBA TEK SINGH,GOJRA,31.281,72.8549
1334208944,2543,doityourself,Kashmir Hardware,401,PUNJAB,RAWALPINDI,RAWALPINDI,33.6001,73.0526
1334222841,2515,bookshop,Pindi Book Depot,401,PUNJAB,RAWALPINDI,RAWALPINDI,33.6001,73.0526
1336412278,2602,atm,,401,PUNJAB,RAWALPINDI,RAWALPINDI,33.6004,73.0544
1336412279,2601,bank,Habib Bank (HBL),401,PUNJAB,RAWALPINDI,RAWALPINDI,33.6003,73.0544
1336460117,2602,atm,,355,PUNJAB,LAHORE,LAHORE CITY,31.6168,74.2787
1336764426,2082,school,F.G.School,197,FEDERAL CAPITAL TERRITORY,ISLAMABAD,ISLAMABAD,33.6846,73.0382
1336795800,2602,atm,,197,FEDERAL CAPITAL TERRITORY,ISLAMABAD,ISLAMABAD,33.6883,73.0318
1336800177,2301,restaurant,Mehraaj Hotel,197,FEDERAL CAPITAL TERRITORY,ISLAMABAD,ISLAMABAD,33.6883,73.0325
1340833377,2005,post_office,,197,FEDERAL CAPITAL TERRITORY,ISLAMABAD,ISLAMABAD,33.6865,73.0427
1340843878,2301,restaurant,Shanwari Resturant‎,197,FEDERAL CAPITAL TERRITORY,ISLAMABAD,ISLAMABAD,33.6851,73.0428
1340908821,2723,monument,Federal Directorate of Education (FDE)‎,197,FEDERAL CAPITAL TERRITORY,ISLAMABAD,ISLAMABAD,33.6817,73.0366
1341931423,2082,school,F.G.Girls Collage No. 9 G-9/2,197,FEDERAL CAPITAL TERRITORY,ISLAMABAD,ISLAMABAD,33.6893,73.0264
1341931773,2903,drinking_water,Water Filtration Plan in G-9/2,197,FEDERAL CAPITAL TERRITORY,ISLAMABAD,ISLAMABAD,33.6891,73.0271
1341946553,2008,town_hall,Community Center,197,FEDERAL CAPITAL TERRITORY,ISLAMABAD,ISLAMABAD,33.6908,73.0236
1350030426,2561,hairdresser,habib,226,KHYBER PAKHTUNKHWA,CHARSADDA,CHARSADDA,34.1636,71.6583
1350039439,2743,zoo,Peshawar,81,KHYBER PAKHTUNKHWA,Peshawar,Peshawar II,34.0883,71.5134
1350043937,2528,greengrocer,Apple,81,KHYBER PAKHTUNKHWA,Peshawar,Peshawar II,34.0865,71.5235
1350054380,2301,restaurant,Fork restaurant,81,KHYBER PAKHTUNKHWA,Peshawar,Peshawar Cantonment,34.0205,71.5594
1350185146,2008,town_hall,Nangarhar Building,81,KHYBER PAKHTUNKHWA,Peshawar,Peshawar IV,33.9818,71.576
1350207244,2004,post_box,,81,KHYBER PAKHTUNKHWA,Peshawar,Peshawar I,34.0121,71.5812
1357553156,2561,hairdresser,,354,PUNJAB,LAHORE,LAHORE CANTT,31.4695,74.2981
1357553158,2511,convenience,,355,PUNJAB,LAHORE,LAHORE CITY,31.4682,74.2973
1357553184,2101,pharmacy,,354,PUNJAB,LAHORE,LAHORE CANTT,31.4698,74.2991
1357553198,2110,hospital,Saadan Hospital,354,PUNJAB,LAHORE,LAHORE CANTT,31.4699,74.2993
1357553199,2502,bakery,Gourmet Bakers,355,PUNJAB,LAHORE,LAHORE CITY,31.4662,74.2937
1357553204,2502,bakery,,354,PUNJAB,LAHORE,LAHORE CANTT,31.4687,74.2982
1357561219,2084,college,Lahore Grammar School Johar Town,355,PUNJAB,LAHORE,LAHORE CITY,31.4708,74.2909
1357561220,2110,hospital,Iqra Medical Complex,354,PUNJAB,LAHORE,LAHORE CANTT,31.4679,74.3056
1357563769,2511,convenience,,355,PUNJAB,LAHORE,LAHORE CITY,31.4621,74.287
1357563771,2501,supermarket,,355,PUNJAB,LAHORE,LAHORE CITY,31.4628,74.2882
1357767174,2301,restaurant,Mei Kong,401,PUNJAB,RAWALPINDI,RAWALPINDI,33.597,73.0486
1360613998,2511,convenience,Shahzeb General Store,401,PUNJAB,RAWALPINDI,RAWALPINDI,33.567,73.1124
1360672835,2082,school,Beacon House,401,PUNJAB,RAWALPINDI,RAWALPINDI,33.5683,73.1114
1361318336,2001,police,,401,PUNJAB,RAWALPINDI,RAWALPINDI,33.6121,73.0546
1361318352,2511,convenience,,401,PUNJAB,RAWALPINDI,RAWALPINDI,33.6097,73.0829
1361346115,2601,bank,National Bank,401,PUNJAB,RAWALPINDI,RAWALPINDI,33.6022,73.0959
1362714201,2511,convenience,,401,PUNJAB,RAWALPINDI,RAWALPINDI,33.5733,73.1058
1362714205,2601,bank,سونیری بینک,401,PUNJAB,RAWALPINDI,RAWALPINDI,33.5733,73.1057
1362714207,2521,gift_shop,,401,PUNJAB,RAWALPINDI,RAWALPINDI,33.5735,73.1056
1362714212,2515,bookshop,,401,PUNJAB,RAWALPINDI,RAWALPINDI,33.5734,73.1057
1362714223,2110,hospital,Safari Hospital,401,PUNJAB,RAWALPINDI,RAWALPINDI,33.5732,73.1064
1362714224,2501,supermarket,Superstore,401,PUNJAB,RAWALPINDI,RAWALPINDI,33.5734,73.1059
1363366609,2602,atm,,401,PUNJAB,RAWALPINDI,RAWALPINDI,33.5733,73.1056
1363366614,2511,convenience,General Store,401,PUNJAB,RAWALPINDI,RAWALPINDI,33.5623,73.1067
1363366615,2502,bakery,Bakers,401,PUNJAB,RAWALPINDI,RAWALPINDI,33.563,73.1063
1363366616,2501,supermarket,Bakala Super Store,401,PUNJAB,RAWALPINDI,RAWALPINDI,33.5616,73.1064
1363366625,2903,drinking_water,,401,PUNJAB,RAWALPINDI,RAWALPINDI,33.5649,73.1085
1363366628,2502,bakery,Ayaan Bakers,401,PUNJAB,RAWALPINDI,RAWALPINDI,33.5618,73.1068
1363366639,2602,atm,,401,PUNJAB,RAWALPINDI,RAWALPINDI,33.5632,73.1063
1363495811,2301,restaurant,Papasallis,401,PUNJAB,RAWALPINDI,RAWALPINDI,33.5862,73.0733
1363495870,2205,playground,PlayLand,401,PUNJAB,RAWALPINDI,RAWALPINDI,33.584,73.0756
1363495897,2501,supermarket,Save Mart,401,PUNJAB,RAWALPINDI,RAWALPINDI,33.5843,73.0735
1363495917,2526,toy_shop,Motion Ride,401,PUNJAB,RAWALPINDI,RAWALPINDI,33.5861,73.0733
1363495928,2205,playground,Skating Square,401,PUNJAB,RAWALPINDI,RAWALPINDI,33.5851,73.0753
1363526637,2744,theme_park,Jinnah Park,401,PUNJAB,RAWALPINDI,RAWALPINDI,33.5854,73.0727
1364121597,2723,monument,,401,PUNJAB,RAWALPINDI,RAWALPINDI,33.585,73.0638
1365149504,2602,atm,,401,PUNJAB,RAWALPINDI,RAWALPINDI,33.6111,73.0907
1365161269,2511,convenience,General Store,401,PUNJAB,RAWALPINDI,RAWALPINDI,33.6087,73.0812
1365161273,2601,bank,عسکری بینک,401,PUNJAB,RAWALPINDI,RAWALPINDI,33.609,73.0819
1365161274,2602,atm,,401,PUNJAB,RAWALPINDI,RAWALPINDI,33.6097,73.0823
1365161279,2601,bank,Habib Bank Limited,401,PUNJAB,RAWALPINDI,RAWALPINDI,33.6086,73.0815
1365195148,2564,car_wash,,401,PUNJAB,RAWALPINDI,RAWALPINDI,33.5567,73.1045
1365195152,2528,greengrocer,Vegitable Shop,401,PUNJAB,RAWALPINDI,RAWALPINDI,33.5568,73.1045
1365195153,2511,convenience,Super Store,401,PUNJAB,RAWALPINDI,RAWALPINDI,33.5897,73.077
1365195154,2502,bakery,Regency Bakers,401,PUNJAB,RAWALPINDI,RAWALPINDI,33.5898,73.0772
1365195158,2501,supermarket,Superstore,401,PUNJAB,RAWALPINDI,RAWALPINDI,33.5564,73.1023
1365195162,2511,convenience,General Store,401,PUNJAB,RAWALPINDI,RAWALPINDI,33.5568,73.1045
1365195163,2528,greengrocer,Vegitable Store,401,PUNJAB,RAWALPINDI,RAWALPINDI,33.5566,73.1022
1365195165,2528,greengrocer,Vegitable shop,401,PUNJAB,RAWALPINDI,RAWALPINDI,33.5614,73.1069
1365195166,2082,school,Army Public School,401,PUNJAB,RAWALPINDI,RAWALPINDI,33.5898,73.088
1366525560,2110,hospital,Combined Military Hospital,354,PUNJAB,LAHORE,LAHORE CANTT,31.5407,74.3726
1374726049,2204,park,Model Town Central Park,354,PUNJAB,LAHORE,LAHORE CANTT,31.4846,74.3261
1384171068,2303,cafe,Indulge,354,PUNJAB,LAHORE,LAHORE CANTT,31.5144,74.3513
1395775047,2016,market_place,کمرشل مارکیٹ,401,PUNJAB,RAWALPINDI,RAWALPINDI,33.6375,73.0708
1403061904,2302,fast_food,One Potato  Two Potato,197,FEDERAL CAPITAL TERRITORY,ISLAMABAD,ISLAMABAD,33.6845,72.9859
1407210918,2731,castle,قلعہ شگر,215,GILGIT BALTISTAN,SKARDU,SHIGAR,35.4227,75.7427
1407433644,2422,camp_site,Korophon,215,GILGIT BALTISTAN,SKARDU,SHIGAR,35.6893,75.9144
1407503326,2422,camp_site,Bardumal,215,GILGIT BALTISTAN,SKARDU,SHIGAR,35.6555,75.9997
1407503328,2422,camp_site,Jhula Camp,215,GILGIT BALTISTAN,SKARDU,SHIGAR,35.6961,75.9745
1407503329,2503,kiosk,Paju,215,GILGIT BALTISTAN,SKARDU,SHIGAR,35.6772,76.1257
1407503329,2422,camp_site,Paju,215,GILGIT BALTISTAN,SKARDU,SHIGAR,35.6772,76.1257
1407513624,2422,camp_site,Liligo,215,GILGIT BALTISTAN,SKARDU,SHIGAR,35.7008,76.1944
1407514105,2422,camp_site,Urdokas,215,GILGIT BALTISTAN,SKARDU,SHIGAR,35.7275,76.285
1407541216,2423,alpine_hut,Hushe Guest House,202,GILGIT BALTISTAN,GHANCHE,MASHABRUM,35.4519,76.3582
1407582250,2503,kiosk,Chuspang,202,GILGIT BALTISTAN,GHANCHE,MASHABRUM,35.6291,76.4341
1407582250,2422,camp_site,Chuspang,202,GILGIT BALTISTAN,GHANCHE,MASHABRUM,35.6291,76.4341
1407582694,2742,viewpoint,Gondokhoro Pass 5480m,202,GILGIT BALTISTAN,GHANCHE,MASHABRUM,35.6526,76.4758
1407582945,2422,camp_site,Camp Ali,215,GILGIT BALTISTAN,SKARDU,SHIGAR,35.6651,76.512
1407583985,2422,camp_site,Concordia,215,GILGIT BALTISTAN,SKARDU,SHIGAR,35.7416,76.5119
1407584362,2422,camp_site,Gore II,215,GILGIT BALTISTAN,SKARDU,SHIGAR,35.7443,76.3982
1408498166,2016,market_place,Usman Ali's Wholesale Market,308,PUNJAB,BHAKKAR,MANKERA,31.352,71.6839
1409069827,2422,camp_site,,215,GILGIT BALTISTAN,SKARDU,SHIGAR,35.6825,75.8189
1410491679,2110,hospital,RAB Medical Centre,0,SINDH,KARACHI,GULSHAN E IQBAL TOWN,24.9223,67.0886
1410491682,2110,hospital,Samdani Hospital,0,SINDH,KARACHI,GULSHAN E IQBAL TOWN,24.9216,67.0883
1411921086,2502,bakery,Valley Ways,401,PUNJAB,RAWALPINDI,RAWALPINDI,33.5829,73.0977
1412374742,2101,pharmacy,,401,PUNJAB,RAWALPINDI,RAWALPINDI,33.5841,73.0959
1412374749,2082,school,The State School,401,PUNJAB,RAWALPINDI,RAWALPINDI,33.5844,73.0945
1412407827,2501,supermarket,Super Store,401,PUNJAB,RAWALPINDI,RAWALPINDI,33.5858,73.0889
1412407836,2502,bakery,Ayaan Bakers,401,PUNJAB,RAWALPINDI,RAWALPINDI,33.5865,73.0882
1412407839,2501,supermarket,Sales Day Store,401,PUNJAB,RAWALPINDI,RAWALPINDI,33.5848,73.09
1412407850,2101,pharmacy,Khatak chemist,401,PUNJAB,RAWALPINDI,RAWALPINDI,33.586,73.089
1412407853,2501,supermarket,Utility Store,401,PUNJAB,RAWALPINDI,RAWALPINDI,33.5852,73.0898
1412407855,2511,convenience,,401,PUNJAB,RAWALPINDI,RAWALPINDI,33.5863,73.088
1412407858,2601,bank,National Saving Center,401,PUNJAB,RAWALPINDI,RAWALPINDI,33.5861,73.0888
1412407861,2101,pharmacy,Medicine Point,401,PUNJAB,RAWALPINDI,RAWALPINDI,33.5866,73.0881
1412407873,2301,restaurant,Resturant,401,PUNJAB,RAWALPINDI,RAWALPINDI,33.585,73.0901
1412407878,2303,cafe,Arabian Cafe,401,PUNJAB,RAWALPINDI,RAWALPINDI,33.5862,73.0876
1412407881,2602,atm,,401,PUNJAB,RAWALPINDI,RAWALPINDI,33.5864,73.0884
1412407885,2082,school,F.G Quaid Azam Public School,401,PUNJAB,RAWALPINDI,RAWALPINDI,33.5903,73.0869
1412407886,2516,butcher,K & N Chicken,401,PUNJAB,RAWALPINDI,RAWALPINDI,33.5849,73.0899
1412407890,2502,bakery,Rahat Bakers,401,PUNJAB,RAWALPINDI,RAWALPINDI,33.5861,73.0876
1412407892,2521,gift_shop,,401,PUNJAB,RAWALPINDI,RAWALPINDI,33.5856,73.0887
1412407896,2602,atm,,401,PUNJAB,RAWALPINDI,RAWALPINDI,33.5861,73.0889
1412407898,2302,fast_food,,401,PUNJAB,RAWALPINDI,RAWALPINDI,33.5863,73.0885
1412407907,2301,restaurant,Resturant,401,PUNJAB,RAWALPINDI,RAWALPINDI,33.5862,73.0877
1412416266,2511,convenience,Kashif General Store,401,PUNJAB,RAWALPINDI,RAWALPINDI,33.5859,73.0887
1414238062,2502,bakery,Bread n Butter,401,PUNJAB,RAWALPINDI,RAWALPINDI,33.5945,73.0534
1414238073,2502,bakery,United Bakers,401,PUNJAB,RAWALPINDI,RAWALPINDI,33.5962,73.0524
1414238076,2511,convenience,,401,PUNJAB,RAWALPINDI,RAWALPINDI,33.5947,73.0536
1414238080,2501,supermarket,City Store,401,PUNJAB,RAWALPINDI,RAWALPINDI,33.5941,73.0553
1414238087,2541,car_dealership,"Suzuki Jan Motors, Saddar Rawalpindi",401,PUNJAB,RAWALPINDI,RAWALPINDI,33.5954,73.0532
1414238109,2515,bookshop,Old Books,401,PUNJAB,RAWALPINDI,RAWALPINDI,33.595,73.0526
1414238113,2526,toy_shop,Toy Shop,401,PUNJAB,RAWALPINDI,RAWALPINDI,33.5944,73.0533
1414238127,2016,market_place,Mobile Phone Plaza,401,PUNJAB,RAWALPINDI,RAWALPINDI,33.5942,73.0549
1414238134,2205,playground,Aladin Fun House,401,PUNJAB,RAWALPINDI,RAWALPINDI,33.5946,73.0555
1414238138,2521,gift_shop,,401,PUNJAB,RAWALPINDI,RAWALPINDI,33.5946,73.0543
1414238153,2302,fast_food,,401,PUNJAB,RAWALPINDI,RAWALPINDI,33.5951,73.0541
1414238165,2512,clothes,pehchan mall,401,PUNJAB,RAWALPINDI,RAWALPINDI,33.5956,73.0518
1414238170,2016,market_place,Shoe Market,401,PUNJAB,RAWALPINDI,RAWALPINDI,33.5948,73.0535
1414238175,2541,car_dealership,Car Showrooms,401,PUNJAB,RAWALPINDI,RAWALPINDI,33.5937,73.0549
1414238186,2501,supermarket,Metro Shoes,401,PUNJAB,RAWALPINDI,RAWALPINDI,33.5935,73.0552
1414238196,2602,atm,,401,PUNJAB,RAWALPINDI,RAWALPINDI,33.5946,73.0526
1414238200,2521,gift_shop,,401,PUNJAB,RAWALPINDI,RAWALPINDI,33.594,73.0546
1414264848,2511,convenience,,401,PUNJAB,RAWALPINDI,RAWALPINDI,33.5962,73.0525
1414264849,2016,market_place,Pasban,401,PUNJAB,RAWALPINDI,RAWALPINDI,33.5964,73.0526
1414264850,2304,pub,Juices,401,PUNJAB,RAWALPINDI,RAWALPINDI,33.5965,73.0513
1414264851,2301,restaurant,Resturant,401,PUNJAB,RAWALPINDI,RAWALPINDI,33.5965,73.0529
1414264857,2101,pharmacy,Pharmecy,401,PUNJAB,RAWALPINDI,RAWALPINDI,33.5969,73.0468
1414264859,2203,cinema,Seroz Cinema,401,PUNJAB,RAWALPINDI,RAWALPINDI,33.5965,73.0501
1414264862,2016,market_place,Shoe Stores,401,PUNJAB,RAWALPINDI,RAWALPINDI,33.5958,73.0521
1414264864,2016,market_place,Computer Market,401,PUNJAB,RAWALPINDI,RAWALPINDI,33.5947,73.053
1414264867,2301,restaurant,Resturants,401,PUNJAB,RAWALPINDI,RAWALPINDI,33.5964,73.0505
1414264874,2512,clothes,,401,PUNJAB,RAWALPINDI,RAWALPINDI,33.5959,73.0515
1414264878,2521,gift_shop,S Ataullah n Sons,401,PUNJAB,RAWALPINDI,RAWALPINDI,33.5955,73.0526
1414264885,2512,clothes,Garments,401,PUNJAB,RAWALPINDI,RAWALPINDI,33.5986,73.0485
1414264888,2503,kiosk,Softo Drinks,401,PUNJAB,RAWALPINDI,RAWALPINDI,33.5955,73.0527
1414264897,2016,market_place,Computer Market,401,PUNJAB,RAWALPINDI,RAWALPINDI,33.5954,73.054
1414264899,2512,clothes,ghakar plaza,401,PUNJAB,RAWALPINDI,RAWALPINDI,33.5981,73.05
1414264901,2512,clothes,,401,PUNJAB,RAWALPINDI,RAWALPINDI,33.5966,73.0523
1414264902,2521,gift_shop,,401,PUNJAB,RAWALPINDI,RAWALPINDI,33.5968,73.0515
1414264903,2601,bank,,401,PUNJAB,RAWALPINDI,RAWALPINDI,33.5948,73.0522
1414264908,2601,bank,نیشنل بینک آف پاکستان,401,PUNJAB,RAWALPINDI,RAWALPINDI,33.5968,73.0503
1414264911,2016,market_place,Service Shoes,401,PUNJAB,RAWALPINDI,RAWALPINDI,33.5968,73.0526
1414324516,2301,restaurant,Kim Fah Chinese restaurant,401,PUNJAB,RAWALPINDI,RAWALPINDI,33.5952,73.0493
1414324523,2515,bookshop,,401,PUNJAB,RAWALPINDI,RAWALPINDI,33.5972,73.0519
1414324538,2543,doityourself,Tailors,401,PUNJAB,RAWALPINDI,RAWALPINDI,33.5971,73.0515
1414865410,2601,bank,عسکری بینک,401,PUNJAB,RAWALPINDI,RAWALPINDI,33.5855,73.0898
1414865420,2101,pharmacy,Shaheen Pharmacy,401,PUNJAB,RAWALPINDI,RAWALPINDI,33.5862,73.0887
1414865422,2012,community_centre,Jaan Shadi Hall,401,PUNJAB,RAWALPINDI,RAWALPINDI,33.5815,73.0984
1415897543,2005,post_office,F-8 Post Office,197,FEDERAL CAPITAL TERRITORY,ISLAMABAD,ISLAMABAD,33.7096,73.0394
1420018688,2528,greengrocer,Veg n Fruit Shop,401,PUNJAB,RAWALPINDI,RAWALPINDI,33.5567,73.1048
1420044386,2082,school,Beacon House Jr.,401,PUNJAB,RAWALPINDI,RAWALPINDI,33.5694,73.111
1420044397,2082,school,Educators' School,401,PUNJAB,RAWALPINDI,RAWALPINDI,33.5649,73.1079
1420044400,2082,school,Citi School,401,PUNJAB,RAWALPINDI,RAWALPINDI,33.5655,73.1064
1420044401,2082,school,Citi School,401,PUNJAB,RAWALPINDI,RAWALPINDI,33.564,73.1063
1420044402,2082,school,Daar Ul Arqam School,401,PUNJAB,RAWALPINDI,RAWALPINDI,33.5672,73.1109
1420044408,2082,school,Air Foundation School,401,PUNJAB,RAWALPINDI,RAWALPINDI,33.565,73.107
1420044411,2082,school,Roots School,401,PUNJAB,RAWALPINDI,RAWALPINDI,33.5699,73.1105
1420062785,2302,fast_food,,401,PUNJAB,RAWALPINDI,RAWALPINDI,33.5858,73.0894
1420080267,2512,clothes,کامران مارکیٹ,401,PUNJAB,RAWALPINDI,RAWALPINDI,33.5985,73.056
1420080281,2502,bakery,Bakery,401,PUNJAB,RAWALPINDI,RAWALPINDI,33.5907,73.0571
1420080299,2082,school,FG College for Women,401,PUNJAB,RAWALPINDI,RAWALPINDI,33.5979,73.0579
1420080318,2601,bank,National Bank,401,PUNJAB,RAWALPINDI,RAWALPINDI,33.5883,73.0578
1420471040,2251,sports_centre,Golf Club,401,PUNJAB,RAWALPINDI,RAWALPINDI,33.5705,73.0779
1420479742,2302,fast_food,Italian Pizza,401,PUNJAB,RAWALPINDI,RAWALPINDI,33.5621,73.1062
1420479744,2511,convenience,General Store,401,PUNJAB,RAWALPINDI,RAWALPINDI,33.5627,73.1066
1420479745,2302,fast_food,Hungry Bunny,401,PUNJAB,RAWALPINDI,RAWALPINDI,33.5624,73.1067
1420479747,2082,school,Springboard School,401,PUNJAB,RAWALPINDI,RAWALPINDI,33.5726,73.1067
1420479749,2511,convenience,Food Mart,401,PUNJAB,RAWALPINDI,RAWALPINDI,33.5613,73.1066
1420479750,2561,hairdresser,Hair Dresser,401,PUNJAB,RAWALPINDI,RAWALPINDI,33.5631,73.1063
1421143922,2082,school,,401,PUNJAB,RAWALPINDI,RAWALPINDI,33.5669,73.1055
1421143923,2561,hairdresser,,401,PUNJAB,RAWALPINDI,RAWALPINDI,33.5858,73.0881
1421143927,2082,school,Silver Oaks School,401,PUNJAB,RAWALPINDI,RAWALPINDI,33.5635,73.1063
1421892290,2304,pub,Safilo Ice Cream,401,PUNJAB,RAWALPINDI,RAWALPINDI,33.5861,73.0876
1423649620,2601,bank,بینک الفلاح,401,PUNJAB,RAWALPINDI,RAWALPINDI,33.5855,73.09
1423658182,2701,tourist_info,Pearl Property Services,401,PUNJAB,RAWALPINDI,RAWALPINDI,33.5619,73.1064
1423658183,2521,gift_shop,Gift Shop,401,PUNJAB,RAWALPINDI,RAWALPINDI,33.5617,73.1065
1423658185,2101,pharmacy,Hearts Pharmacy,401,PUNJAB,RAWALPINDI,RAWALPINDI,33.5618,73.1065
1423660071,2601,bank,فیصل بینک,401,PUNJAB,RAWALPINDI,RAWALPINDI,33.5615,73.1066
1425890636,2511,convenience,Abbasi Market,197,FEDERAL CAPITAL TERRITORY,ISLAMABAD,ISLAMABAD,33.7161,73.0428
1428176431,2253,swimming_pool,,0,SINDH,KARACHI,KIAMARI TOWN,24.8738,66.945
1428198398,2511,convenience,Walk n Shop,0,SINDH,KARACHI,KIAMARI TOWN,24.8762,66.9426
1428198400,2543,doityourself,MES Complaint Office,0,SINDH,KARACHI,KIAMARI TOWN,24.8816,66.9457
1428198411,2251,sports_centre,Basket Ball Court,0,SINDH,KARACHI,KIAMARI TOWN,24.8804,66.9445
1428198420,2742,viewpoint,Mirage Aircraft,0,SINDH,KARACHI,KIAMARI TOWN,24.8751,66.9431
1428198432,2725,artwork,Bomber Aircraft,0,SINDH,KARACHI,KIAMARI TOWN,24.8788,66.9398
1428198436,2205,playground,Children Park,0,SINDH,KARACHI,KIAMARI TOWN,24.8754,66.9436
1428217425,2110,hospital,Family Wing,0,SINDH,KARACHI,KIAMARI TOWN,24.881,66.9452
1428217449,2251,sports_centre,College Ground,0,SINDH,KARACHI,KIAMARI TOWN,24.8789,66.9425
1428217451,2082,school,Fizaia School and College,0,SINDH,KARACHI,KIAMARI TOWN,24.879,66.9411
1428217463,2083,kindergarten,Base Montessori,0,SINDH,KARACHI,KIAMARI TOWN,24.8745,66.941
1428217499,2007,library,Library,0,SINDH,KARACHI,KIAMARI TOWN,24.8786,66.9409
1428217500,2110,hospital,PAF Hospital,0,SINDH,KARACHI,KIAMARI TOWN,24.882,66.9471
1428217503,2302,fast_food,College Canteen,0,SINDH,KARACHI,KIAMARI TOWN,24.878,66.9409
1428217511,2110,hospital,M I Room,0,SINDH,KARACHI,KIAMARI TOWN,24.8801,66.9486
1428259176,2521,gift_shop,PAFWA Shop,0,SINDH,KARACHI,KIAMARI TOWN,24.8745,66.9442
1428259216,2602,atm,,0,SINDH,KARACHI,KIAMARI TOWN,24.8763,66.9426
1428259232,2405,hostel,Officers' Mess Masroor,0,SINDH,KARACHI,KIAMARI TOWN,24.8755,66.9431
1428259236,2904,fountain,Water Fountain,0,SINDH,KARACHI,KIAMARI TOWN,24.8746,66.944
1428259241,2251,sports_centre,Ofiicers Gym,0,SINDH,KARACHI,KIAMARI TOWN,24.8747,66.9435
1428259243,2561,hairdresser,Barber Shop,0,SINDH,KARACHI,KIAMARI TOWN,24.8745,66.9442
1428259255,2251,sports_centre,Squash Courts,0,SINDH,KARACHI,KIAMARI TOWN,24.8748,66.943
1428259313,2561,hairdresser,Beautician Shop,0,SINDH,KARACHI,KIAMARI TOWN,24.8746,66.9443
1428259315,2515,bookshop,Book Shop,0,SINDH,KARACHI,KIAMARI TOWN,24.8762,66.9427
1428259341,2502,bakery,Bakery,0,SINDH,KARACHI,KIAMARI TOWN,24.8763,66.9428
1428259342,2528,greengrocer,Veg and Fruit Shop,0,SINDH,KARACHI,KIAMARI TOWN,24.8762,66.9428
1428259347,2701,tourist_info,Reception,0,SINDH,KARACHI,KIAMARI TOWN,24.8744,66.9441
1428265969,2083,kindergarten,PAFWA Montessori,0,SINDH,KARACHI,KIAMARI TOWN,24.8884,66.9542
1428265975,2082,school,College of Aviation Safety Management - CASM,0,SINDH,KARACHI,KIAMARI TOWN,24.8886,66.9529
1428265978,2543,doityourself,Electronic Repair Shop,0,SINDH,KARACHI,KIAMARI TOWN,24.8865,66.9544
1428265979,2542,bicycle_shop,Cycle Repair,0,SINDH,KARACHI,KIAMARI TOWN,24.8865,66.9544
1428265981,2110,hospital,Medical Institute,0,SINDH,KARACHI,KIAMARI TOWN,24.8882,66.953
1428265989,2528,greengrocer,Veg n Fruit Shop,0,SINDH,KARACHI,KIAMARI TOWN,24.8864,66.9542
1428265991,2725,artwork,Photo Shop,0,SINDH,KARACHI,KIAMARI TOWN,24.8864,66.9543
1428265993,2511,convenience,General Store,0,SINDH,KARACHI,KIAMARI TOWN,24.8865,66.9545
1428265996,2203,cinema,PAF Cinema,0,SINDH,KARACHI,KIAMARI TOWN,24.8878,66.9548
1428265998,2511,convenience,General Store,0,SINDH,KARACHI,KIAMARI TOWN,24.8877,66.9548
1429973743,2302,fast_food,KFC Saddar,401,PUNJAB,RAWALPINDI,RAWALPINDI,33.5941,73.0561
1440050891,2601,bank,ایچ بی ایل پاکستان,0,SINDH,KARACHI,KIAMARI TOWN,24.8833,66.9501
1440050892,2543,doityourself,Repair Shop,0,SINDH,KARACHI,KIAMARI TOWN,24.885,66.9513
1440050893,2501,supermarket,CSD Store,0,SINDH,KARACHI,KIAMARI TOWN,24.8834,66.95
1440050903,2101,pharmacy,Medical Store,0,SINDH,KARACHI,KIAMARI TOWN,24.883,66.9502
1440050909,2561,hairdresser,Barber Shop,0,SINDH,KARACHI,KIAMARI TOWN,24.8848,66.9515
1440050911,2511,convenience,General Store,0,SINDH,KARACHI,KIAMARI TOWN,24.8861,66.9553
1440050917,2301,restaurant,Nan Shop,0,SINDH,KARACHI,KIAMARI TOWN,24.8861,66.9553
1440050929,2528,greengrocer,Fruit n Veg Shop,0,SINDH,KARACHI,KIAMARI TOWN,24.8831,66.9502
1440050930,2502,bakery,Bakery,0,SINDH,KARACHI,KIAMARI TOWN,24.8832,66.9502
1440050935,2521,gift_shop,Gift Shop,0,SINDH,KARACHI,KIAMARI TOWN,24.8829,66.9501
1440050940,2601,bank,National Bank,0,SINDH,KARACHI,KIAMARI TOWN,24.8828,66.9502
1440065030,2016,market_place,SIF Market No 2,0,SINDH,KARACHI,KIAMARI TOWN,24.8848,66.956
1440065041,2511,convenience,Convenience Shop,0,SINDH,KARACHI,KIAMARI TOWN,24.8824,66.9497
1440065060,2007,library,Library,0,SINDH,KARACHI,KIAMARI TOWN,24.8816,66.9499
1440065071,2302,fast_food,Cafe,0,SINDH,KARACHI,KIAMARI TOWN,24.8807,66.9495
1440070237,2516,butcher,Meet Shop,0,SINDH,KARACHI,KIAMARI TOWN,24.8849,66.9559
1440070244,2006,telephone,,0,SINDH,KARACHI,KIAMARI TOWN,24.8849,66.9562
1440070251,2528,greengrocer,Fruit n Veg Shop,0,SINDH,KARACHI,KIAMARI TOWN,24.8849,66.956
1440070253,2304,pub,Milk Shop,0,SINDH,KARACHI,KIAMARI TOWN,24.8848,66.9563
1440070261,2511,convenience,General Store,0,SINDH,KARACHI,KIAMARI TOWN,24.8847,66.9562
1440070265,2301,restaurant,Cafe n Nan Shop,0,SINDH,KARACHI,KIAMARI TOWN,24.8847,66.9563
1440070269,2513,florist,Shoe Repair,0,SINDH,KARACHI,KIAMARI TOWN,24.8847,66.9563
1440070274,2511,convenience,General Store,0,SINDH,KARACHI,KIAMARI TOWN,24.8846,66.9562
1440070277,2512,clothes,Stitch Shop,0,SINDH,KARACHI,KIAMARI TOWN,24.8849,66.9562
1440070278,2521,gift_shop,Gift Shop,0,SINDH,KARACHI,KIAMARI TOWN,24.885,66.9562
1440070280,2542,bicycle_shop,Cycle Repair Shop,0,SINDH,KARACHI,KIAMARI TOWN,24.885,66.9561
1440070283,2511,convenience,General Store,0,SINDH,KARACHI,KIAMARI TOWN,24.8849,66.956
1440076476,2302,fast_food,School Canteen,0,SINDH,KARACHI,KIAMARI TOWN,24.8755,66.9408
1445365541,2008,town_hall,Haji Fazaldad Residence Ex-Chairman,239,KHYBER PAKHTUNKHWA,HARIPUR,HARIPUR,33.9274,72.8576
1454871397,2721,attraction,Sann Gate,446,SINDH,JAMSHORO,MANJAND,25.8839,67.9323
1454891842,2742,viewpoint,Badro Jabal,447,SINDH,JAMSHORO,SEHWAN,26.1056,67.6511
1456583317,2082,school,Best College,300,PUNJAB,BAHAWALPUR,BAHAWALPUR,29.386,71.6588
1458867747,2005,post_office,GPO Multan,369,PUNJAB,MULTAN,MULTAN CITY,30.1895,71.4551
1472920844,2515,bookshop,Chaudhary PhotoStat Shop,369,PUNJAB,MULTAN,MULTAN CITY,30.2718,71.506
1473033393,2301,restaurant,UFC,369,PUNJAB,MULTAN,MULTAN CITY,30.2723,71.5051
1473041608,2007,library,"Central Library, BZU Multan",369,PUNJAB,MULTAN,MULTAN CITY,30.2717,71.5053
1473085345,2301,restaurant,Central Cafe,369,PUNJAB,MULTAN,MULTAN CITY,30.2712,71.5049
1473086245,2005,post_office,University Post Office,369,PUNJAB,MULTAN,MULTAN CITY,30.2711,71.5037
1473120808,2602,atm,,369,PUNJAB,MULTAN,MULTAN CITY,30.2709,71.5072
1473121471,2602,atm,,369,PUNJAB,MULTAN,MULTAN CITY,30.2711,71.5076
1473135363,2301,restaurant,Bank Chowk Resturant,369,PUNJAB,MULTAN,MULTAN CITY,30.2709,71.5033
1481216205,2950,tower,RMC,81,KHYBER PAKHTUNKHWA,Peshawar,Peshawar Cantonment,34.0152,71.5654
1496096815,2405,hostel,"Hostel, Govt. College for Boys",401,PUNJAB,RAWALPINDI,RAWALPINDI,33.6425,73.066
1507149368,2301,restaurant,,354,PUNJAB,LAHORE,LAHORE CANTT,31.5316,74.3653
1507373681,2602,atm,,354,PUNJAB,LAHORE,LAHORE CANTT,31.5216,74.2904
1512234917,2251,sports_centre,Gymnesium,355,PUNJAB,LAHORE,LAHORE CITY,31.5128,74.287
1532540163,2501,supermarket,shop,369,PUNJAB,MULTAN,MULTAN CITY,30.2712,71.5051
1534027490,2302,fast_food,,354,PUNJAB,LAHORE,LAHORE CANTT,31.5076,74.3477
1534280398,2120,doctors,,354,PUNJAB,LAHORE,LAHORE CANTT,31.522,74.2904
1539352937,2001,police,Ait police station,354,PUNJAB,LAHORE,LAHORE CANTT,31.5194,74.2916
1539581885,2602,atm,,354,PUNJAB,LAHORE,LAHORE CANTT,31.5159,74.3441
1546836225,2901,toilet,,401,PUNJAB,RAWALPINDI,RAWALPINDI,33.5798,73.1435
1548371244,2082,school,"Islamabad Model College for Girls, Korang Town",401,PUNJAB,RAWALPINDI,RAWALPINDI,33.5811,73.1426
1548376183,2561,hairdresser,,401,PUNJAB,RAWALPINDI,RAWALPINDI,33.5794,73.1437
1548376187,2001,police,Koral Police Station,197,FEDERAL CAPITAL TERRITORY,ISLAMABAD,ISLAMABAD,33.6056,73.1315
1548376190,2205,playground,,401,PUNJAB,RAWALPINDI,RAWALPINDI,33.58,73.1442
1550525532,2505,department_store,ہائپر اسٹار,354,PUNJAB,LAHORE,LAHORE CANTT,31.5349,74.3629
1557275970,2302,fast_food,مکڈونلڈز,354,PUNJAB,LAHORE,LAHORE CANTT,31.5197,74.2907
1558238060,2301,restaurant,Bundu khan,354,PUNJAB,LAHORE,LAHORE CANTT,31.521,74.2907
1583478344,2008,town_hall,dha phase 1 islamabad,401,PUNJAB,RAWALPINDI,RAWALPINDI,33.5379,73.1013
1583592026,2302,fast_food,rawalpindi food street,401,PUNJAB,RAWALPINDI,RAWALPINDI,33.6502,73.0767
1583594095,2008,town_hall,BOARD OF INTERMEDIATE AND SECONDARY EDUCATION RAWALPINDI,401,PUNJAB,RAWALPINDI,RAWALPINDI,33.6435,73.0645
1585773811,2505,department_store,Rahim store,354,PUNJAB,LAHORE,LAHORE CANTT,31.5217,74.2905
1595101295,2601,bank,National Bank,0,SINDH,KARACHI,SADDAR TOWN,24.8542,67.0241
1595135236,2011,embassy,Singapore Embassy,0,SINDH,KARACHI,SADDAR TOWN,24.8549,67.0254
1596069531,2082,school,sideque public school,401,PUNJAB,RAWALPINDI,RAWALPINDI,33.6431,73.07
1596070052,2904,fountain,fawarah,401,PUNJAB,RAWALPINDI,RAWALPINDI,33.6489,73.0771
1606193111,2601,bank,Al-Habib Bank,440,SINDH,HYDERABAD,LATIFABAD,25.3719,68.3561
1606193112,2601,bank,بینک الفلاح,440,SINDH,HYDERABAD,LATIFABAD,25.3722,68.3559
1611363614,2004,post_box,,440,SINDH,HYDERABAD,LATIFABAD,25.3683,68.3571
1611363615,2005,post_office,Unit-7,440,SINDH,HYDERABAD,LATIFABAD,25.3658,68.356
1611363619,2601,bank,Suneri Bank,440,SINDH,HYDERABAD,LATIFABAD,25.3711,68.3568
1611365419,2501,supermarket,,440,SINDH,HYDERABAD,LATIFABAD,25.3695,68.3581
1611367024,2511,convenience,,440,SINDH,HYDERABAD,LATIFABAD,25.3662,68.3625
1611372913,2723,monument,,440,SINDH,HYDERABAD,LATIFABAD,25.3616,68.3491
1611372929,2511,convenience,,440,SINDH,HYDERABAD,LATIFABAD,25.3589,68.3463
1625042878,2904,fountain,fountain,8,AZAD KASHMIR,KOTLI,KOTLI,33.5131,73.9007
1631157890,2503,kiosk,MOSQUE,8,AZAD KASHMIR,KOTLI,KOTLI,33.5125,73.8918
1640164796,2511,convenience,Liaquat Market,0,SINDH,KARACHI,MALIR,24.8926,67.1949
1645189684,2741,picnic_site,Karamaar,273,KHYBER PAKHTUNKHWA,SWABI,RAZAR,34.2545,72.292
1651507867,2904,fountain,,0,SINDH,KARACHI,GULSHAN E IQBAL TOWN,24.935,67.0973
1657122030,2902,bench,,440,SINDH,HYDERABAD,LATIFABAD,25.3831,68.3501
1657122031,2601,bank,الائیڈ بینک,440,SINDH,HYDERABAD,LATIFABAD,25.3829,68.3493
1657122033,2601,bank,یونائیٹڈ بینک لمیٹڈ,440,SINDH,HYDERABAD,LATIFABAD,25.3829,68.3492
1665859201,2521,gift_shop,,354,PUNJAB,LAHORE,LAHORE CANTT,31.5082,74.3475
1665864801,2541,car_dealership,Mini motors,354,PUNJAB,LAHORE,LAHORE CANTT,31.5012,74.3581
1665866322,2301,restaurant,,354,PUNJAB,LAHORE,LAHORE CANTT,31.5213,74.3478
1668218022,2905,hunting_stand,ریڈیو پاکستان,197,FEDERAL CAPITAL TERRITORY,ISLAMABAD,ISLAMABAD,33.6437,73.1728
1668308767,2005,post_office,Alipur Post Office,197,FEDERAL CAPITAL TERRITORY,ISLAMABAD,ISLAMABAD,33.6449,73.1823
1668718996,2110,hospital,Shakeela Shabir Hospital,197,FEDERAL CAPITAL TERRITORY,ISLAMABAD,ISLAMABAD,33.6454,73.1754
1668719004,2110,hospital,Begam Jan Hospital,197,FEDERAL CAPITAL TERRITORY,ISLAMABAD,ISLAMABAD,33.6454,73.1745
1668725700,2601,bank,ایچ بی ایل پاکستان,197,FEDERAL CAPITAL TERRITORY,ISLAMABAD,ISLAMABAD,33.6449,73.1737
1669871304,2101,pharmacy,Ateeqa Medical Store,197,FEDERAL CAPITAL TERRITORY,ISLAMABAD,ISLAMABAD,33.6454,73.1763
1669871371,2101,pharmacy,Mehria Medical Store,197,FEDERAL CAPITAL TERRITORY,ISLAMABAD,ISLAMABAD,33.6455,73.1815
1669871385,2501,supermarket,Umer Traders,197,FEDERAL CAPITAL TERRITORY,ISLAMABAD,ISLAMABAD,33.6455,73.1778
1669871458,2101,pharmacy,Hamza Medical Store,197,FEDERAL CAPITAL TERRITORY,ISLAMABAD,ISLAMABAD,33.6451,73.1832
1669871527,2101,pharmacy,Alipur Medical Store,197,FEDERAL CAPITAL TERRITORY,ISLAMABAD,ISLAMABAD,33.6451,73.1808
1669871546,2101,pharmacy,New Gujarkhan Medical Store,197,FEDERAL CAPITAL TERRITORY,ISLAMABAD,ISLAMABAD,33.6455,73.1769
1670653331,2601,bank,ایچ بی ایل پاکستان,401,PUNJAB,RAWALPINDI,RAWALPINDI,33.6415,73.0796
1670675620,2601,bank,Bank Alflah,401,PUNJAB,RAWALPINDI,RAWALPINDI,33.6289,73.1114
1671682270,2302,fast_food,Energy Bakery,440,SINDH,HYDERABAD,LATIFABAD,25.3922,68.3637
1671682343,2082,school,Federal College,440,SINDH,HYDERABAD,LATIFABAD,25.3936,68.3619
1671682394,2082,school,,440,SINDH,HYDERABAD,LATIFABAD,25.3931,68.3622
1671682399,2502,bakery,Bombay Bakery,440,SINDH,HYDERABAD,LATIFABAD,25.3877,68.3628
1671682420,2084,college,Hayats Girls College & School,440,SINDH,HYDERABAD,LATIFABAD,25.395,68.3617
1672924396,2515,bookshop,Mr.Books,401,PUNJAB,RAWALPINDI,RAWALPINDI,33.6386,73.0719
1672924410,2101,pharmacy,ڈی واٹسن کیمسٹ,401,PUNJAB,RAWALPINDI,RAWALPINDI,33.6321,73.0717
1673425802,2101,pharmacy,GujarKhan Medical Store,197,FEDERAL CAPITAL TERRITORY,ISLAMABAD,ISLAMABAD,33.6451,73.1835
1673425831,2501,supermarket,Utility Store,197,FEDERAL CAPITAL TERRITORY,ISLAMABAD,ISLAMABAD,33.6451,73.1833
1673668452,2501,supermarket,Mehmood Plaza,197,FEDERAL CAPITAL TERRITORY,ISLAMABAD,ISLAMABAD,33.6452,73.1868
1674187678,2301,restaurant,پیزا ہٹ,0,SINDH,KARACHI,GULSHAN E IQBAL TOWN,24.8756,67.0876
1674221962,2601,bank,Bank Alflah,401,PUNJAB,RAWALPINDI,RAWALPINDI,33.6321,73.0861
1674843648,2110,hospital,O.P.D.,445,SINDH,JAMSHORO,KOTRI,25.4341,68.2709
1685605924,2301,restaurant,Makkah Resturants,0,SINDH,KARACHI,GADAP TOWN,25.0068,67.3581
1685606121,2301,restaurant,Mashallah Quaidabad Mianwali Hotel,0,SINDH,KARACHI,GADAP TOWN,25.0255,67.3922
1685606287,2301,restaurant,Sindh Islamia Hotel,0,SINDH,KARACHI,GADAP TOWN,25.0197,67.3694
1698010225,2302,fast_food,کینٹکی فرائیڈ چکن,401,PUNJAB,RAWALPINDI,RAWALPINDI,33.5505,73.1254
1698011142,2502,bakery,Unique Bakery,401,PUNJAB,RAWALPINDI,RAWALPINDI,33.5489,73.1239
1698026541,2302,fast_food,Oxygen,401,PUNJAB,RAWALPINDI,RAWALPINDI,33.5574,73.1363
1698027884,2302,fast_food,ڈنکن ڈونٹس,401,PUNJAB,RAWALPINDI,RAWALPINDI,33.5573,73.1364
1698029311,2301,restaurant,Relish Cuisine,401,PUNJAB,RAWALPINDI,RAWALPINDI,33.5523,73.1394
1698030365,2502,bakery,Harolds Bakery,401,PUNJAB,RAWALPINDI,RAWALPINDI,33.5521,73.1391
1698033148,2501,supermarket,Harold's Super Market,401,PUNJAB,RAWALPINDI,RAWALPINDI,33.5522,73.1393
1698038182,2101,pharmacy,Shaheen Chemist,401,PUNJAB,RAWALPINDI,RAWALPINDI,33.5524,73.1394
1698038184,2521,gift_shop,Gift Shop,401,PUNJAB,RAWALPINDI,RAWALPINDI,33.5522,73.1393
1698042260,2303,cafe,DaJoint,401,PUNJAB,RAWALPINDI,RAWALPINDI,33.552,73.1388
1698078335,2205,playground,B park,401,PUNJAB,RAWALPINDI,RAWALPINDI,33.5506,73.1277
1698078343,2564,car_wash,PSO Car Wash,401,PUNJAB,RAWALPINDI,RAWALPINDI,33.5485,73.1327
1698078346,2015,graveyard,Bahria Town GraveYard,401,PUNJAB,RAWALPINDI,RAWALPINDI,33.552,73.1223
1698178039,2601,bank,جے ایس بینک,401,PUNJAB,RAWALPINDI,RAWALPINDI,33.548,73.1313
1698182027,2602,atm,,401,PUNJAB,RAWALPINDI,RAWALPINDI,33.5479,73.1314
1698182030,2251,sports_centre,Race Car Track,401,PUNJAB,RAWALPINDI,RAWALPINDI,33.5469,73.127
1699224211,2251,sports_centre,Tennis Court,401,PUNJAB,RAWALPINDI,RAWALPINDI,33.5471,73.1192
1704440724,2950,tower,Mobile Tower,265,KHYBER PAKHTUNKHWA,NOWSHEHRA_,PABBI,33.9301,71.8091
1705451509,2903,drinking_water,,197,FEDERAL CAPITAL TERRITORY,ISLAMABAD,ISLAMABAD,33.7166,73.016
1705451520,2521,gift_shop,,197,FEDERAL CAPITAL TERRITORY,ISLAMABAD,ISLAMABAD,33.7156,73.0196
1705464460,2903,drinking_water,,197,FEDERAL CAPITAL TERRITORY,ISLAMABAD,ISLAMABAD,33.7208,73.0124
1705464522,2083,kindergarten,PAF Montessori,197,FEDERAL CAPITAL TERRITORY,ISLAMABAD,ISLAMABAD,33.711,73.0201
1707143902,2101,pharmacy,FGD- G7/1 Dispensary,197,FEDERAL CAPITAL TERRITORY,ISLAMABAD,ISLAMABAD,33.7002,73.0702
1707143912,2101,pharmacy,Federal Government Dispensary - G-7/1,197,FEDERAL CAPITAL TERRITORY,ISLAMABAD,ISLAMABAD,33.7004,73.0715
1707162784,2701,tourist_info,Amber Tours,197,FEDERAL CAPITAL TERRITORY,ISLAMABAD,ISLAMABAD,33.6985,73.0645
1707177004,2110,hospital,International Islamic Medical Centre,197,FEDERAL CAPITAL TERRITORY,ISLAMABAD,ISLAMABAD,33.707,73.0781
1710261944,2903,drinking_water,,197,FEDERAL CAPITAL TERRITORY,ISLAMABAD,ISLAMABAD,33.7158,73.019
1714798901,2016,market_place,Sunday Bazaar,197,FEDERAL CAPITAL TERRITORY,ISLAMABAD,ISLAMABAD,33.7112,73.0877
1715905537,2601,bank,الائیڈ بینک,354,PUNJAB,LAHORE,LAHORE CANTT,31.4686,74.3175
1715927555,2502,bakery,Fresh Inn Bakers,354,PUNJAB,LAHORE,LAHORE CANTT,31.4661,74.3161
1715927615,2016,market_place,Raja Sahab,354,PUNJAB,LAHORE,LAHORE CANTT,31.4682,74.3169
1715928621,2521,gift_shop,,354,PUNJAB,LAHORE,LAHORE CANTT,31.4661,74.3162
1715929243,2602,atm,,354,PUNJAB,LAHORE,LAHORE CANTT,31.4685,74.3175
1715929574,2082,school,Blessing Field School,354,PUNJAB,LAHORE,LAHORE CANTT,31.4685,74.3182
1715932815,2101,pharmacy,Fazal Din Pharmacy,354,PUNJAB,LAHORE,LAHORE CANTT,31.4675,74.3165
1715933166,2512,clothes,Focus,354,PUNJAB,LAHORE,LAHORE CANTT,31.4687,74.3175
1715934572,2016,market_place,Bridal Centre,354,PUNJAB,LAHORE,LAHORE CANTT,31.4678,74.3172
1716030550,2082,school,Albadar Science Academy,401,PUNJAB,RAWALPINDI,RAWALPINDI,33.5423,73.0045
1716116698,2082,school,Shaheen School System,197,FEDERAL CAPITAL TERRITORY,ISLAMABAD,ISLAMABAD,33.7074,73.0139
1716116718,2083,kindergarten,Shaheen School Jr Sec,197,FEDERAL CAPITAL TERRITORY,ISLAMABAD,ISLAMABAD,33.7079,73.0147
1720551758,2205,playground,,354,PUNJAB,LAHORE,LAHORE CANTT,31.4841,74.3298
1725565530,2082,school,Let's Help Educate,401,PUNJAB,RAWALPINDI,RAWALPINDI,33.5431,73.0063
1727456859,2083,kindergarten,BeaconHouse Kindergarten Branch,197,FEDERAL CAPITAL TERRITORY,ISLAMABAD,ISLAMABAD,33.7161,73.0328
1728704712,2601,bank,اسٹینڈرڈ چارٹرڈ,197,FEDERAL CAPITAL TERRITORY,ISLAMABAD,ISLAMABAD,33.7145,73.0638
1732632465,2301,restaurant,Savour Foods,197,FEDERAL CAPITAL TERRITORY,ISLAMABAD,ISLAMABAD,33.7132,73.0635
1741002364,2110,hospital,Jandola Hosp,162,FATA,FR TANK,FR TANK,32.3356,70.1252
1741002372,2005,post_office,Jandola PO,162,FATA,FR TANK,FR TANK,32.3365,70.1223
1741007458,2082,school,WITE,192,FATA,SOUTH WAZIRISTAN AGENCY,SARAOGHA,32.3242,70.0595
1741007463,2082,school,SPSC,162,FATA,FR TANK,FR TANK,32.3371,70.1221
1749449949,2501,supermarket,UTILITY STORES,354,PUNJAB,LAHORE,LAHORE CANTT,31.5238,74.3447
1749449952,2101,pharmacy,Guardian,354,PUNJAB,LAHORE,LAHORE CANTT,31.5238,74.3464
1749449953,2101,pharmacy,Fazal Din Pharmacy,354,PUNJAB,LAHORE,LAHORE CANTT,31.5238,74.3465
1749454353,2082,school,ESNA FOUNDATION,354,PUNJAB,LAHORE,LAHORE CANTT,31.5229,74.3377
1750454167,2121,dentist,Dr. Qazi and Associates,354,PUNJAB,LAHORE,LAHORE CANTT,31.5186,74.3486
1758620320,2952,water_tower,Fort Villa Water Tower,354,PUNJAB,LAHORE,LAHORE CANTT,31.4828,74.3763
1758620491,2952,water_tower,,354,PUNJAB,LAHORE,LAHORE CANTT,31.4837,74.3728
1758620610,2904,fountain,,354,PUNJAB,LAHORE,LAHORE CANTT,31.4844,74.3776
1758657329,2904,fountain,,354,PUNJAB,LAHORE,LAHORE CANTT,31.4866,74.3744
1758753093,2511,convenience,,354,PUNJAB,LAHORE,LAHORE CANTT,31.4846,74.3758
1758753094,2511,convenience,,354,PUNJAB,LAHORE,LAHORE CANTT,31.4846,74.3757
1758753095,2528,greengrocer,,354,PUNJAB,LAHORE,LAHORE CANTT,31.4852,74.3765
1758753099,2561,hairdresser,,354,PUNJAB,LAHORE,LAHORE CANTT,31.4855,74.3767
1758753101,2528,greengrocer,,354,PUNJAB,LAHORE,LAHORE CANTT,31.4855,74.3767
1758753103,2516,butcher,,354,PUNJAB,LAHORE,LAHORE CANTT,31.4856,74.3769
1758753106,2511,convenience,,354,PUNJAB,LAHORE,LAHORE CANTT,31.4856,74.3769
1758753107,2528,greengrocer,,354,PUNJAB,LAHORE,LAHORE CANTT,31.4856,74.377
1758753110,2502,bakery,,354,PUNJAB,LAHORE,LAHORE CANTT,31.4857,74.377
1758753112,2511,convenience,,354,PUNJAB,LAHORE,LAHORE CANTT,31.4857,74.3751
1759671239,2511,convenience,,354,PUNJAB,LAHORE,LAHORE CANTT,31.4846,74.3787
1759671244,2904,fountain,,354,PUNJAB,LAHORE,LAHORE CANTT,31.4847,74.3793
1772535590,2950,tower,Nexlinx Wireless Internet Tower,354,PUNJAB,LAHORE,LAHORE CANTT,31.4447,74.3354
1777824990,2950,tower,,0,SINDH,KARACHI,GULSHAN E IQBAL TOWN,24.9035,67.0763
1777828050,2303,cafe,,0,SINDH,KARACHI,GULSHAN E IQBAL TOWN,24.9035,67.0764
1787149681,2564,car_wash,Service Station,197,FEDERAL CAPITAL TERRITORY,ISLAMABAD,ISLAMABAD,33.7197,73.1698
1787153748,2251,sports_centre,Islamabad Polo Ground,197,FEDERAL CAPITAL TERRITORY,ISLAMABAD,ISLAMABAD,33.7127,73.1252
1792909675,2016,market_place,Panorama Shopping Centre,401,PUNJAB,RAWALPINDI,RAWALPINDI,33.6516,73.0737
1793985307,2405,hostel,ROYAL student hostel,401,PUNJAB,RAWALPINDI,RAWALPINDI,33.6528,73.0711
1793986907,2301,restaurant,Al madni resturant,401,PUNJAB,RAWALPINDI,RAWALPINDI,33.653,73.0709
1793987690,2405,hostel,Bilal student hostel,401,PUNJAB,RAWALPINDI,RAWALPINDI,33.6531,73.0708
1793988714,2301,restaurant,Daubai food & resturant,401,PUNJAB,RAWALPINDI,RAWALPINDI,33.6533,73.0707
1793990793,2543,doityourself,Mahboob electronics workshop,401,PUNJAB,RAWALPINDI,RAWALPINDI,33.6534,73.0707
1793992622,2541,car_dealership,Mandi bha-o-deen atfiq autos,401,PUNJAB,RAWALPINDI,RAWALPINDI,33.6535,73.0706
1793993506,2502,bakery,zum zum bakers,401,PUNJAB,RAWALPINDI,RAWALPINDI,33.6537,73.0704
1793993761,2405,hostel,zum zum hostel,401,PUNJAB,RAWALPINDI,RAWALPINDI,33.6537,73.0703
1793994418,2301,restaurant,zum zum resturant,401,PUNJAB,RAWALPINDI,RAWALPINDI,33.6538,73.0703
1793994555,2541,car_dealership,MAKKAH autos,401,PUNJAB,RAWALPINDI,RAWALPINDI,33.6538,73.0703
1793994925,2521,gift_shop,mr.example mobiles and PCO,401,PUNJAB,RAWALPINDI,RAWALPINDI,33.6539,73.0702
1793997456,2301,restaurant,tabaraak resturant,401,PUNJAB,RAWALPINDI,RAWALPINDI,33.6543,73.07
1793997465,2401,hotel,twin city hotel,197,FEDERAL CAPITAL TERRITORY,ISLAMABAD,ISLAMABAD,33.6544,73.0699
1794004206,2251,sports_centre,city gym,401,PUNJAB,RAWALPINDI,RAWALPINDI,33.6546,73.0704
1794005044,2301,restaurant,Al-madina resturant,401,PUNJAB,RAWALPINDI,RAWALPINDI,33.6544,73.0705
1794007477,2302,fast_food,saman PCO and cold drinks,401,PUNJAB,RAWALPINDI,RAWALPINDI,33.6541,73.0708
1794007502,2405,hostel,abaseen boys hostel,401,PUNJAB,RAWALPINDI,RAWALPINDI,33.654,73.0708
1794008130,2541,car_dealership,Abbasi Motors,401,PUNJAB,RAWALPINDI,RAWALPINDI,33.6536,73.0711
1794008131,2541,car_dealership,Al-Abbas motors,401,PUNJAB,RAWALPINDI,RAWALPINDI,33.6535,73.0712
1794008132,2541,car_dealership,A & Z motors,401,PUNJAB,RAWALPINDI,RAWALPINDI,33.6535,73.0711
1794008133,2541,car_dealership,4 stars motors,401,PUNJAB,RAWALPINDI,RAWALPINDI,33.6534,73.0713
1794008134,2541,car_dealership,Shahbaz motors,401,PUNJAB,RAWALPINDI,RAWALPINDI,33.6533,73.0714
1794008135,2541,car_dealership,Haidri motors,401,PUNJAB,RAWALPINDI,RAWALPINDI,33.6534,73.0713
1794008136,2541,car_dealership,Kazmi motors,401,PUNJAB,RAWALPINDI,RAWALPINDI,33.6532,73.0714
1794008137,2541,car_dealership,Sardar motors,401,PUNJAB,RAWALPINDI,RAWALPINDI,33.6532,73.0714
1794010614,2563,car_rental,Aftab motors,401,PUNJAB,RAWALPINDI,RAWALPINDI,33.653,73.0716
1811291321,2005,post_office,Post Office,360,PUNJAB,LODHRAN,KARORPACCA,29.62,71.9077
1811291326,2001,police,تھانہ,360,PUNJAB,LODHRAN,KARORPACCA,29.6203,71.9096
1811293650,2511,convenience,Khan Super Store,360,PUNJAB,LODHRAN,KARORPACCA,29.6352,71.9046
1811295068,2951,comms_tower,,360,PUNJAB,LODHRAN,KARORPACCA,29.6358,71.9049
1811295070,2951,comms_tower,,360,PUNJAB,LODHRAN,KARORPACCA,29.637,71.904
1811305006,2101,pharmacy,,360,PUNJAB,LODHRAN,KARORPACCA,29.6342,71.9056
1811305009,2082,school,Girls College,360,PUNJAB,LODHRAN,KARORPACCA,29.6238,71.9205
1811305013,2561,hairdresser,,360,PUNJAB,LODHRAN,KARORPACCA,29.6357,71.9035
1811305014,2511,convenience,Al Raza Hardware Store,360,PUNJAB,LODHRAN,KARORPACCA,29.6344,71.9056
1830591827,2007,library,,197,FEDERAL CAPITAL TERRITORY,ISLAMABAD,ISLAMABAD,33.6756,73.1808
1831211394,2950,tower,,265,KHYBER PAKHTUNKHWA,NOWSHEHRA_,PABBI,33.9346,71.8086
1847109694,2501,supermarket,Mottas,0,SINDH,KARACHI,SADDAR TOWN,24.8269,67.0336
1847110776,2302,fast_food,Jeddah Foods,0,SINDH,KARACHI,SADDAR TOWN,24.8271,67.0336
